     3.04           OBSERVATION DATA    M (MIXED)           RINEX VERSION / TYPE
RINEXWRITER         GARMIN              20240626 150010 UTC PGM / RUN BY / DATE
Download navigation file using this link:                   COMMENT
ftp://cddis.gsfc.nasa.gov/gnss/data/daily/2024/178/24p/     COMMENT
BRDC00IGS_R_20241780000_01D_MN.rnx.gz                       COMMENT
GARMIN MARKER                                               MARKER NAME
                                                            MARKER NUMBER
                                                            MARKER TYPE
                                                            OBSERVER / AGENCY
GPSMAP 66sr 3.80                                            REC # / TYPE / VERS
                                                            ANT # / TYPE
  3863813.7500  1324236.2500  4882738.0000                  APPROX POSITION XYZ
        0.0000        0.0000        0.0000                  ANTENNA: DELTA H/E/N
G    8 C1C L1C D1C S1C C5X L5X D5X S5X                      SYS / # / OBS TYPES
R    4 C1C L1C D1C S1C                                      SYS / # / OBS TYPES
E    8 C1Z L1Z D1Z S1Z C5X L5X D5X S5X                      SYS / # / OBS TYPES
C    4 C1X L1X D1X S1X                                      SYS / # / OBS TYPES
J    8 C1C L1C D1C S1C C5X L5X D5X S5X                      SYS / # / OBS TYPES
I    4 C5A L5A D5A S5A                                      SYS / # / OBS TYPES
  2024     6    26    15     0   10.000000                  TIME OF FIRST OBS
G                                                           SYS / PHASE SHIFT   
R                                                           SYS / PHASE SHIFT   
E                                                           SYS / PHASE SHIFT   
C                                                           SYS / PHASE SHIFT   
J                                                           SYS / PHASE SHIFT   
I                                                           SYS / PHASE SHIFT   
  0                                                         GLONASS SLOT / FRQ #
 C1C    0.000 C1P    0.000 C2C    0.000 C2P    0.000        GLONASS COD/PHS/BIS 
                                                            END OF HEADER
> 2024 06 26 15 00 10.0000000  0 15       0.000000000000
G02  23094103.555                       -2539.784          21.000                                                                  
G03  20095305.202   105601540.821        -133.369          35.625    20095306.495    78858298.608         -99.499          40.375  
G04  20513747.529   107800471.168        2053.358          33.250    20513741.982    80500329.576        1533.332          33.750  
G06  22927866.839   120486753.417        3583.780          36.375    22927868.272    89973880.080        2676.133          37.000  
G09  22826829.659   119955799.040        3860.172          26.250    22826822.018    89577353.495        2882.812          25.500  
G17  23028866.333                       -1399.849          20.250                                                                  
G19  22390535.133   117663056.668         -47.536          28.500                                                                  
G28  23724274.542   124671904.437       -1599.761          43.250                                                                  
G31  22066857.744   115962119.794         339.822          43.000                                                                  
R02  22339511.338   119207912.850        3863.005          24.875  
R09  22976901.242   122695370.024        -384.254          37.125  
R01  19395472.058   103679914.359        1291.174          32.000  
R24  19735074.819   105532313.568        -852.618          30.125  
R17  21169255.396   113280962.440        3484.642          33.250  
R08  21103996.826   113010944.374       -2349.739          38.375  
> 2024 06 26 15 00 11.0000000  0 15       0.000000000000
G02  23094705.379                       -2538.568          22.750                                                                  
G03  20095438.661   105602257.969        -133.992          35.250    20095442.677    78858834.116         -99.773          40.375  
G04  20513464.626   107799001.421        2053.147          33.000    20513464.035    80499232.015        1533.288          33.875  
G06  22927295.169   120483753.467        3583.405          35.875    22927297.789    89971639.852        2675.939          36.625  
G09  22826197.332   119952522.640        3859.949          26.250    22826203.721    89574906.823        2882.271          25.375  
G17                                     -1400.324          19.125                                                                  
G19  22390656.237   117663688.329         -48.431          28.625                                                                  
G28  23724687.275   124674088.081       -1600.364          42.750                                                                  
G31  22066902.626   115962363.852         339.208          42.750                                                                  
R02  22338916.006   119204642.601        3862.799          25.125  
R09  22977094.312   122696347.840        -385.141          36.750  
R01  19395344.671   103679217.277        1290.350          31.750  
R24  19735336.014   105533760.662        -853.855          29.875  
R17  21168721.210   113278072.118        3484.018          32.625  
R08  21104547.485   113013889.250       -2350.395          38.000  
> 2024 06 26 15 00 12.0000000  0 15       0.000000000000
G02  23095298.337   121366612.285       -2540.117          24.000                                                                  
G03  20095572.958   105602975.985        -134.480          35.375    20095579.556    78859370.323        -100.443          40.500  
G04  20513183.608   107797532.629        2052.373          32.875    20513183.994    80498135.225        1532.797          34.000  
G06  22926724.966   120480754.270        3583.142          35.875    22926727.167    89969400.230        2675.480          36.750  
G09  22825581.968   119949246.958        3859.156          27.375    22825578.794                        2882.066          25.250  
G17  23029621.579                       -1400.050          16.375                                                                  
G19  22390778.598   117664321.094         -49.115          28.875                                                                  
G28  23725103.218   124676272.725       -1600.967          42.500                                                                  
G31  22066950.928   115962609.114         338.355          42.375                                                                  
R02  22338298.826   119201373.123        3862.114          25.125  
R09  22977274.886   122697326.950        -386.191          37.125  
R01  19395213.725   103678521.173        1289.807          31.625  
R24  19735609.983   105535209.021        -854.318          29.625  
R17  21168187.303   113275182.990        3483.238          33.000  
R08  21105098.842   113016834.765       -2350.562          38.125  
> 2024 06 26 15 00 13.0000000  0 16       0.000000000000
G02  23095902.394                       -2539.898          23.125                                                                  
G03  20095714.025   105603695.120        -137.190          39.875    20095716.645    78859907.374        -102.797          41.250  
G04  20512899.588   107796065.268        2049.890          33.625    20512905.698    80497039.454        1529.990          34.875  
G06  22926158.601   120477755.294        3582.226          35.875    22926156.754    89967160.693        2674.804          36.125  
G09  22824957.738   119945971.505        3859.540          26.375    22824953.378    89570015.047        2879.677          26.500  
G17  23030031.659                       -1408.074          26.875                                                                  
G19  22390894.886   117664953.979         -49.481          28.125                                                                  
G28  23725522.093   124678457.420       -1600.345          42.125                                                                  
G31  22066999.510   115962855.284         336.081          42.250                                                                  
R02  22337658.822   119198103.927        3860.800          26.625  
R09  22977452.669   122698306.331        -387.432          36.125  
R01  19395078.730                        1286.624          31.000  
R24  19735873.132   105536659.098        -857.893          29.500  
R17  21167634.899   113272294.597        3481.666          33.875  
R08  21105652.782   113019780.639       -2352.098          38.250  
E12                                      1489.680          33.625                                                                  
> 2024 06 26 15 00 14.0000000  0 16       0.000000000000
G02  23096491.933   121372860.177       -2540.707          27.625                                                                  
G03  20095853.767   105604414.768        -134.849          40.000    20095853.943    78860444.836        -101.338          38.625  
G04  20512618.639   107794598.358        2051.943          31.875    20512623.492    80495944.095        1531.010          33.000  
G06  22925585.675   120474756.650        3582.317          32.125    22925585.154    89964921.550        2674.436          34.375  
G09  22824328.064   119942695.288        3861.192          27.000    22824329.078    89567569.053        2881.634          27.875  
G17  23030406.909   121025604.891       -1406.732          38.250                                                                  
G19  22391025.903   117665588.300         -50.887          34.250                                                                  
G28  23725932.523   124680642.922       -1600.800          38.625                                                                  
G31  22067040.762   115963102.215         338.292          39.125                                                                  
R02  22337051.205   119194834.589        3861.779          32.875  
R09  22977642.039   122699286.687        -386.843          34.500  
R01  19394957.835   103677132.238        1287.931          31.000  
R24  19736149.893                        -858.184          27.625  
R17  21167096.873   113269406.878        3481.732          34.875  
R08  21106196.531   113022726.797       -2350.014          34.875  
E12                                      1491.251          33.125                                                                  
> 2024 06 26 15 00 15.0000000  0 16       0.000000000000
G02  23097086.427                       -2537.186          23.250                                                                  
G03  20095988.692   105605132.604        -134.271          41.625    20095989.985    78860980.708        -100.204          36.750  
G04  20512342.995   107793129.644        2052.339          33.875    20512344.010    80494847.109        1532.839          32.250  
G06  22925003.885   120471756.948        3583.501          33.500    22925012.856    89962681.423        2676.078          33.125  
G09  22823701.531   119939419.215        3860.086          27.250    22823704.221    89565122.391        2882.939          27.875  
G17  23030783.554   121027594.159       -1405.624          39.750                                                                  
G19  22391141.284   117666221.658         -49.899          33.875                                                                  
G28  23726355.795   124682827.713       -1601.353          35.875                                                                  
G31  22067083.759   115963348.159         337.443          37.750                                                                  
R02  22336444.984   119191564.418        3862.959          32.875  
R09  22977816.821   122700266.772        -387.153          35.625  
R01  19394830.657   103676436.204        1289.601          33.625  
R24  19736411.506                        -857.117          25.750  
R17  21166560.314   113266518.200        3482.752          36.875  
R08  21106745.515   113025671.593       -2349.858          34.625  
E12                                      1492.406          35.375                                         716.376          15.000  
> 2024 06 26 15 00 16.0000000  0 16       0.000000000000
G02  23097674.918                       -2535.572          21.750                                                                  
G03  20096123.687   105605852.875        -134.349          44.250    20096127.353    78861518.548        -100.388          39.875  
G04  20512065.467   107791663.614        2051.477          36.000    20512066.062    80493752.455        1531.780          32.875  
G06  22924436.683   120468759.639        3582.994          35.500    22924441.536    89960443.148        2675.755          32.250  
G09  22823072.904   119936145.058        3860.011          27.750    22823083.202                        2882.269          26.625  
G17  23031164.388   121029585.868       -1406.234          38.000                                                                  
G19  22391261.132   117666857.791         -50.506          35.500                                                                  
G28  23726771.110   124685014.999       -1601.447          36.875                                                                  
G31  22067130.107   115963596.915         337.114          39.000                                                                  
R02  22335834.017   119188296.421        3862.697          31.625  
R09  22978001.863   122701249.777        -387.941          35.375  
R01  19394700.828   103675742.820        1289.288          35.625  
R24  19736702.995   105541007.567        -857.342          28.125  
R17  21166023.824   113263632.214        3482.333          38.125  
R08  21107292.684   113028618.741       -2350.308          35.750  
E12                                      1492.281          38.000                                        1113.695          27.250  
> 2024 06 26 15 00 17.0000000  0 16       0.000000000000
G02  23098273.530                       -2536.283          18.000                                                                  
G03  20096261.823   105606572.602        -135.472          43.250    20096263.116    78862055.987        -100.880          38.000  
G04  20511782.354   107790197.029        2050.929          33.000    20511788.813    80492657.385        1531.623          30.000  
G06  22923867.317   120465761.542        3582.197          34.875    22923872.798    89958204.375        2675.353          32.625  
G09  22822452.584   119932870.307        3858.239          25.125                                        2881.319          23.125  
G17  23031549.340   121031577.050       -1406.436          34.000                                                                  
G19  22391381.678   117667493.540         -51.499          35.375                                                                  
G28  23727187.054   124687201.766       -1602.380          38.500                                                                  
G31  22067181.969   115963845.342         335.761          40.375                                                                  
R02  22335215.651                        3863.456          26.875  
R09  22978187.533   122702232.560        -389.168          34.875  
R01  19394580.072   103675048.953        1288.151          34.500  
R24  19736976.544   105542459.866        -857.881          28.875  
R17  21165485.659   113260745.864        3481.265          38.000  
R08  21107852.418   113031564.989       -2350.785          35.875  
E12                                      1491.291          37.250                                        1112.200          33.625  
> 2024 06 26 15 00 18.0000000  0 16       0.000000000000
G02  23098871.305                       -2536.927          16.875                                                                  
G03  20096399.191   105607292.180        -134.629          42.250    20096400.484    78862593.382        -100.737          38.000  
G04  20511503.500   107788730.300        2051.344          31.875    20511511.355    80491562.095        1532.082          28.625  
G06  22923288.667   120462763.247        3583.132          32.750    22923303.153    89955965.428        2675.625          33.000  
G09  22821835.753                        3863.936          22.000    22821837.256    89557786.364        2882.804          22.500  
G17  23031924.031   121033568.090       -1406.244          32.250                                                                  
G19  22391501.805   117668129.464         -51.159          34.500                                                                  
G28  23727600.345   124689388.570       -1602.055          38.500                                                                  
G31  22067229.643   115964093.995         336.045          40.750                                                                  
R02  22334616.340                        3863.385          24.125  
R09  22978379.276   122703215.633        -388.991          34.875  
R01  19394435.863   103674355.063        1288.613          33.500  
R24  19737251.420   105543912.483        -857.651          30.250  
R17  21164937.652   113257859.631        3481.567          37.625  
R08  21108394.771   113034510.920       -2349.783          35.375  
E12                                      1491.659          37.000                                        1114.054          34.625  
> 2024 06 26 15 00 19.0000000  0 16       0.000000000000
G02  23099462.868                       -2538.447          17.125                                                                  
G03  20096536.768   105608013.346        -135.030          42.625    20096537.782    78863131.900        -100.853          38.375  
G04  20511230.508   107787265.227        2051.363          31.875    20511229.359    80490468.118        1531.635          27.500  
G06  22922719.092   120459766.439        3582.991          33.375    22922731.135    89953727.515        2675.739          32.500  
G09  22821245.098                        3857.529          20.500    22821214.772                        2882.634          22.375  
G17  23032302.143   121035560.678       -1406.412          32.750                                                                  
G19  22391623.189   117668767.774         -51.949          34.625                                                                  
G28  23728014.823   124691577.004       -1602.217          37.750                                                                  
G31  22067276.549   115964344.484         335.417          40.875                                                                  
R02  22334022.544                        3864.166          21.750  
R09  22978558.804   122704200.723        -389.814          35.125  
R01  19394304.847   103673662.846        1288.720          33.250  
R24  19737512.755   105545367.089        -858.201          29.875  
R17  21164408.840   113254975.309        3481.076          37.375  
R08  21108949.758   113037458.285       -2349.974          35.875  
E12                                      1491.501          37.125                                        1113.964          34.625  
> 2024 06 26 15 00 20.0000000  0 16       0.000000000000
G02  23100053.453                       -2538.579          16.250                                                                  
G03  20096673.508   105608734.288        -135.805          42.750    20096674.662    78863670.261        -101.430          38.125  
G04  20510942.091   107785800.073        2050.149          32.625    20510951.900    80489374.000        1530.964          27.625  
G06  22922147.074   120456769.249        3582.198          33.625    22922161.280    89951489.380        2675.351          32.500  
G09  22820621.776                        3858.494          16.750    22820594.172    89552896.634        2881.771          22.000  
G17  23032680.952   121037552.974       -1407.188          33.625                                                                  
G19  22391740.803   117669405.574         -52.839          35.000                                                                  
G28  23728430.278   124693765.387       -1603.501          37.125                                                                  
G31  22067327.085   115964595.031         334.223          41.625                                                                  
R02  22333374.582                        3859.862          21.125  
R09  22978741.263   122705185.910        -390.872          35.625  
R01  19394182.277   103672970.593        1287.410          33.750  
R24  19737780.790   105546821.946        -859.855          29.750  
R17  21163862.509   113252090.948        3480.013          37.375  
R08  21109505.582   113040405.243       -2350.525          36.500  
E12                                      1490.810          36.875                                        1113.270          34.500  
> 2024 06 26 15 00 21.0000000  0 16       0.000000000000
G02  23100649.623                       -2539.693          19.875                                                                  
G03  20096810.737   105609456.289        -135.792          44.000    20096813.007    78864209.411        -101.303          37.250  
G04  20510670.356   107784335.991        2050.357          34.625    20510668.090                        1531.592          26.625  
G06  22921579.104   120453773.082        3582.336          33.750    22921591.146    89949251.947        2675.114          32.250  
G09  22819993.428                        3860.951          21.375    22819966.452    89550452.258        2881.871          23.750  
G17  23033066.113   121039546.375       -1407.186          35.500                                                                  
G19  22391868.399   117670044.725         -52.732          35.250                                                                  
G28  23728849.781   124695954.810       -1603.185          35.000                                                                  
G31  22067373.014   115964846.928         334.169          40.125                                                                  
R02  22332747.421   119171956.164        3862.725          24.750  
R09  22978919.954   122706172.568        -391.138          34.375  
R01  19394054.541   103672279.466        1287.482          35.250  
R24  19738052.665   105548278.114        -859.402          28.250  
R17  21163320.854   113249207.885        3479.931          38.250  
R08  21110052.263   113043353.050       -2350.195          37.375  
E12                                      1490.799          38.375                                        1113.603          35.125  
> 2024 06 26 15 00 22.0000000  0 16       0.000000000000
G02  23101248.654                       -2539.619          18.250                                                                  
G03  20096950.478   105610179.581        -136.046          44.500    20096949.468    78864749.522        -101.497          37.500  
G04  20510392.200   107782873.363        2049.781          33.750    20510390.492    80487188.288        1530.426          27.250  
G06  22921015.671   120450778.028        3582.478          35.625    22921020.594    89947015.380        2675.094          33.375  
G09  22819342.325                        3861.769          23.750    22819342.502    89548008.670        2882.361          25.875  
G17  23033444.993   121041541.131       -1407.540          37.125                                                                  
G19  22391993.273   117670685.508         -53.903          35.500                                                                  
G28  23729265.236   124698145.626       -1603.534          33.875                                                                  
G31  22067419.850   115965100.448         333.414          38.250                                                                  
R02  22332163.606   119168690.202        3862.494          27.750  
R09  22979116.094   122707160.940        -391.671          36.000  
R01  19393923.036   103671589.756        1286.977          36.250  
R24  19738320.910   105549736.254        -860.904          29.125  
R17  21162794.555   113246326.331        3479.435          39.000  
R08  21110597.896   113046301.997       -2350.470          37.625  
E12                                      1490.731          39.000                                        1113.324          37.375  
> 2024 06 26 15 00 23.0000000  0 16       0.000000000000
G02  23101846.848                       -2540.287          18.000                                                                  
G03  20097086.101   105610902.414        -136.270          45.000    20097087.395    78865289.287        -101.734          38.625  
G04  20510109.506   107781410.428        2049.468          34.250    20510112.056    80486095.908        1530.143          26.250  
G06  22920443.094   120447782.475        3582.051          34.875    22920449.971    89944778.427        2674.915          32.625  
G09  22818719.213   119913241.821        3858.752          24.250    22818722.181                        2881.968          24.500  
G17  23033824.221   121043535.503       -1407.806          35.250                                                                  
G19  22392110.189   117671326.025         -53.913          34.625                                                                  
G28  23729684.809   124700336.168       -1603.913          35.750                                                                  
G31  22067471.363   115965353.806         333.131          39.500                                                                  
R02  22331537.073   119165423.720        3861.692          25.500  
R09  22979304.347   122708149.235        -392.505          35.500  
R01  19393795.579   103670899.624        1287.027          35.125  
R24  19738583.012   105551194.498        -861.566          27.125  
R17  21162247.316   113243444.535        3479.026          38.500  
R08  21111149.253   113049250.264       -2350.369          37.375  
E12                                      1490.573          38.750                                        1113.165          36.000  
> 2024 06 26 15 00 24.0000000  0 16       0.000000000000
G02  23102444.762                       -2539.555          18.500                                                                  
G03  20097225.842   105611626.090        -136.182          46.000    20097226.089    78865829.667        -101.481          39.750  
G04  20509830.442   107779948.321        2049.688          33.375    20509836.691    80485004.180        1530.268          24.375  
G06  22919872.123   120444787.614        3582.111          33.125    22919881.373    89942542.015        2675.230          32.750  
G09  22818094.425                        3860.788          19.875                                        2882.101          22.250  
G17  23034206.381   121045530.606       -1407.735          35.375                                                                  
G19  22392243.021   117671967.625         -54.282          37.375                                                                  
G28  23730100.473   124702527.624       -1603.976          36.875                                                                  
G31  22067517.711   115965608.277         332.775          39.625                                                                  
R02  22330957.516   119162157.800        3862.521          24.250  
R09  22979498.603   122709138.758        -392.794          35.500  
R01  19393656.536   103670210.522        1286.546          33.500  
R24  19738839.251   105552653.981        -861.962          26.875  
R17  21161719.551   113240563.838        3478.815          38.125  
R08  21111698.517   113052199.218       -2350.215          37.000  
E12                                      1490.505          37.000                                        1113.335          34.500  
> 2024 06 26 15 00 25.0000000  0 16       0.000000000000
G02  23103041.001                       -2539.600          17.625                                                                  
G03  20097363.560   105612350.000        -136.268          46.125    20097363.248    78866370.304        -102.083          39.625  
G04  20509550.401   107778486.616        2049.013          32.125                                        1530.280          23.875  
G06  22919305.688   120441792.878        3582.284          32.875    22919310.542    89940305.711        2674.910          33.375  
G09  22817473.127                        3860.790          18.875                                        2882.573          21.250  
G17  23034582.607   121047525.981       -1407.641          35.500                                                                  
G19  22392360.426   117672609.766         -54.740          37.750                                                                  
G28  23730518.092   124704719.393       -1604.269          37.500                                                                  
G31  22067566.013   115965863.280         332.411          39.375                                                                  
R02  22330341.035                        3862.303          23.250  
R09  22979669.964   122710128.888        -393.178          35.500  
R01  19393533.966   103669521.744        1286.276          32.750  
R24  19739142.536   105554114.070        -862.272          28.250  
R17  21161175.104   113237683.608        3478.607          38.125  
R08  21112251.759   113055148.238       -2350.250          37.250  
E12                                      1490.578          35.250                                        1112.853          34.125  
> 2024 06 26 15 00 26.0000000  0 17       0.000000000000
G02  23103637.310                       -2538.056          16.250                                                                  
G03  20097502.394   105613074.384        -136.925          46.125    20097500.616    78866911.219        -102.115          39.375  
G04  20509278.456   107777025.380        2048.589          31.500                                        1527.234          23.750  
G06  22918728.156   120438798.469        3581.938          32.625    22918741.245    89938069.630        2674.960          33.750  
G09  22816850.573                        3860.062          19.250                                        2884.338          20.625  
G17  23034961.905   121049521.841       -1408.432          34.875                                                                  
G19  22392482.298   117673252.653         -55.765          37.125                                                                  
G28  23730935.013   124706911.693       -1604.776          37.625                                                                  
G31  22067616.200   115966119.064         331.552          39.750                                                                  
R10  22537659.165   120138405.456        2503.235          23.750  
R02  22329732.301                        3859.808          20.750  
R09  22979852.354   122711119.883        -394.311          35.375  
R01  19393386.127   103668833.510        1285.895          32.750  
R24  19739404.150   105555575.066        -863.584          29.375  
R17  21160630.936   113234804.040        3477.704          38.250  
R08  21112810.445   113058097.519       -2350.635          37.375  
E12                                      1490.097          35.125                                        1112.643          34.000  
> 2024 06 26 15 00 27.0000000  0 17       0.000000000000
G02  23104230.618                       -2538.374          19.500                                                                  
G03  20097637.668   105613799.355        -137.218          46.125    20097638.961    78867452.571        -102.369          39.375  
G04  20509001.137   107775564.853        2048.321          32.125    20509007.387    80481692.843        1529.267          24.000  
G06  22918160.255   120435804.588        3581.552          32.000    22918171.251    89935833.926        2674.736          33.750  
G09  22816229.345                        3861.268          20.000    22816229.033                        2885.333          20.625  
G17  23035341.832   121051518.290       -1408.647          35.000                                                                  
G19  22392600.122   117673896.365         -56.112          36.375                                                                  
G28  23731351.724   124709104.688       -1605.276          37.875                                                                  
G31  22067667.434   115966375.725         331.025          40.500                                                                  
R10  22537325.796                        2502.026          24.250  
R02  22329118.263                        3860.801          21.875  
R09  22980040.816   122712111.869        -394.767          35.625  
R01  19393267.256   103668146.012        1285.566          32.875  
R24  19739659.342   105557037.064        -864.132          28.500  
R17  21160099.961   113231925.330        3476.959          38.375  
R08  21113356.358   113061047.164       -2350.764          37.000  
E12                                      1489.784          35.000                                        1112.376          34.125  
> 2024 06 26 15 00 28.0000000  0 17       0.000000000000
G02  23104825.531                       -2538.575          20.250                                                                  
G03  20097778.735   105614524.464        -137.483          45.875    20097777.027    78867994.067        -102.580          39.250  
G04  20508717.955   107774104.585        2047.677          33.500    20508726.229    80480602.266        1529.709          25.875  
G06  22917588.795   120432810.654        3581.655          32.500    22917601.117    89933598.192        2674.810          32.875  
G09  22815606.162                        3860.126          15.750    22815608.224                        2882.773          20.500  
G17  23035724.759   121053514.878       -1408.850          34.250                                                                  
G19  22392727.578   117674540.550         -56.554          36.750                                                                  
G28  23731768.435   124711297.891       -1605.441          37.750                                                                  
G31  22067714.410   115966632.831         330.476          40.250                                                                  
R10  22536994.241   120134592.899        2502.625          24.250  
R02  22328493.335                        3862.031          21.000  
R09  22980228.581   122713104.458        -395.709          35.625  
R01  19393142.871   103667458.755        1285.135          33.125  
R24  19739935.893   105558499.518        -864.575          27.750  
R17  21159561.447   113229046.920        3476.769          38.500  
R08  21113908.413   113063996.761       -2350.836          37.125  
E12                                      1489.627          36.250                                        1112.391          34.250  
> 2024 06 26 15 00 29.0000000  0 17       0.000000000000
G02  23105420.165                       -2541.719          22.500                                                                  
G03  20097914.638   105615249.679        -137.590          45.250    20097915.512    78868535.644        -102.733          38.250  
G04  20508444.475   107772644.411        2047.770          34.875                                        1529.113          25.125  
G06  22917029.969   120429816.725        3581.664          33.375    22917033.566    89931362.499        2674.590          33.500  
G09  22814979.769                        3861.366          19.875    22814988.880                        2882.248          22.500  
G17  23036108.455   121055511.570       -1409.023          34.750                                                                  
G19  22392852.173   117675185.055         -56.890          35.375                                                                  
G28  23732187.380   124713491.322       -1605.671          35.625                                                                  
G31  22067762.433   115966890.351         329.957          39.375                                                                  
R10  22536642.445                        2499.731          22.875  
R02  22327887.463                        3858.419          20.250  
R09  22980429.328   122714097.500        -396.078          34.875  
R01  19393013.809   103666771.700        1284.821          34.500  
R24  19740217.958   105559962.571        -865.053          28.750  
R17  21159023.980   113226168.877        3476.315          38.750  
R08  21114459.700   113066946.226       -2350.598          37.500  
E12                                      1489.438          37.750                                        1112.380          35.000  
> 2024 06 26 15 00 30.0000000  0 17       0.000000000000
G02  23106015.217   121422888.224       -2540.935          24.750                                                                  
G03  20098054.518   105615976.355        -137.727          45.000    20098052.950    78869078.255        -102.620          37.375  
G04  20508167.505   107771185.873        2047.475          34.500    20508169.636                        1529.366          25.875  
G06  22916449.854   120426824.215        3581.728          32.875    22916462.106    89929127.779        2675.156          33.875  
G09  22814353.864                        3859.951          20.375    22814367.164    89528476.635        2881.895          24.000  
G17  23036477.632   121057509.742       -1409.151          34.750                                                                  
G19  22392969.857   117675831.293         -57.149          34.500                                                                  
G28  23732608.140   124715686.342       -1605.884          34.375                                                                  
G31  22067813.597   115967149.573         329.774          38.875                                                                  
R10  22536277.316                        2501.624          23.000  
R02  22327264.141                        3859.608          21.625  
R09  22980597.618   122715092.436        -396.714          34.000  
R01  19392889.633   103666086.219        1284.670          34.750  
R24  19740495.556   105561427.661        -865.678          30.000  
R17  21158489.375   113223292.550        3476.047          39.000  
R08  21115001.634   113069896.966       -2350.211          36.875  
E12                                      1489.414          37.500                                        1112.231          34.625  
> 2024 06 26 15 00 31.0000000  0 17       0.000000000000
G02  23106613.341   121426017.885       -2540.403          24.125                                                                  
G03  20098193.841   105616702.888        -137.701          45.500    20098192.063    78869620.795        -102.811          37.875  
G04  20507888.650   107769727.219        2047.531          34.375    20507892.736    80477333.561        1528.782          28.250  
G06  22915882.512   120423831.369        3581.915          33.750    22915892.810    89926892.978        2674.375          33.000  
G09  22813728.448                        3860.515          20.500    22813740.700    89526034.240        2882.350          23.875  
G17  23036858.814   121059507.735       -1408.885          33.250                                                                  
G19  22393090.962   117676477.622         -57.461          35.000                                                                  
G28  23733024.782   124717881.251       -1606.043          35.375                                                                  
G31  22067860.852   115967408.965         329.363          39.500                                                                  
R10  22535919.656   120128879.821        2500.308          23.875  
R02  22326645.635                        3857.362          21.500  
R09  22980790.478   122716087.555        -396.809          34.750  
R01  19392766.784   103665400.668        1284.668          34.250  
R24  19740786.207   105562893.083        -866.291          30.500  
R17  21157953.025   113220416.281        3476.055          39.250  
R08  21115560.530   113072847.438       -2350.458          37.500  
E12                                      1489.464          37.250                                        1112.220          34.125  
> 2024 06 26 15 00 32.0000000  0 17       0.000000000000
G02  23107207.765   121429147.663       -2540.202          24.750                                                                  
G03  20098332.117   105617430.107        -137.838          44.875    20098329.711    78870163.927        -103.023          39.375  
G04  20507615.101   107768269.222        2047.158          34.625    20507612.974    80476244.537        1528.846          30.250  
G06  22915312.658   120420839.225        3581.422          34.875    22915324.421    89924658.448        2674.616          33.375  
G09  22813111.548   119883785.171        3858.763          25.875    22813117.309                        2882.073          23.625  
G17  23037240.974   121061506.477       -1409.569          37.000                                                                  
G19  22393216.045   117677124.907         -58.104          34.750                                                                  
G28  23733445.123   124720076.960       -1606.304          38.125                                                                  
G31  22067912.156   115967669.395         328.695          41.750                                                                  
R10  22535559.344   120126977.036        2500.406          23.625  
R02  22326024.966   119136038.151        3862.204          26.000  
R09  22980971.820   122717083.815        -397.646          35.875  
R01  19392644.702   103664715.988        1283.886          35.875  
R24  19741065.690   105564359.404        -866.934          31.625  
R17  21157416.744   113217541.012        3475.301          39.500  
R08  21116118.798   113075798.375       -2350.661          35.250  
E12                                      1489.006          38.250                                        1111.965          36.500  
> 2024 06 26 15 00 33.0000000  0 17       0.000000000000
G02  23107806.448                       -2541.064          22.750                                                                  
G03  20098467.879   105618156.633        -138.364          43.500    20098467.009    78870706.463        -103.300          39.500  
G04  20507334.222   107766810.724        2046.609          36.375    20507337.121    80475155.334        1528.679          35.000  
G06  22914747.689   120417846.182        3581.208          34.625    22914754.357    89922423.394        2674.672          33.875  
G09  22812488.994   119880514.189        3858.729          29.125    22812495.801    89521149.751        2882.225          27.000  
G17  23037620.761   121063504.550       -1409.788          39.750                                                                  
G19  22393340.779   117677771.791         -58.845          34.250                                                                  
G28  23733858.134   124722272.058       -1606.989          37.000                                                                  
G31  22067962.412   115967929.360         328.048          40.125                                                                  
R10  22535193.727                        2499.249          23.625  
R02  22325403.389   119132773.657        3861.793          29.250  
R09  22981153.652   122718079.675        -398.331          34.750  
R01  19392514.174   103664030.654        1283.563          36.750  
R24  19741341.752   105565825.587        -867.560          32.375  
R17  21156879.836   113214665.188        3475.000          39.625  
R08  21116662.267   113078748.440       -2350.568          36.125  
E12                                      1488.850          38.375                                        1111.640          39.125  
> 2024 06 26 15 00 34.0000000  0 17       0.000000000000
G02  23108409.597                       -2540.824          20.125                                                                  
G03  20098606.643   105618883.401        -138.521          43.000    20098604.935    78871249.147        -103.017          38.875  
G04  20507058.020   107765352.512        2046.662          38.000    20507060.360    80474066.448        1528.503          39.125  
G06  22914176.858   120414853.299        3580.936          34.375    22914185.271    89920188.435        2674.440          34.375  
G09  22811867.417   119877243.346        3859.389          33.125    22811872.340    89518707.361        2882.074          31.125  
G17  23037998.593   121065502.835       -1409.996          38.750                                                                  
G19  22393469.631   117678419.189         -59.134          34.875                                                                  
G28  23734276.451   124724467.457       -1606.990          37.250                                                                  
G31  22068010.924   115968189.869         327.758          39.500                                                                  
R10  22534835.439                        2500.089          22.500  
R02  22324780.206   119129509.154        3861.956          28.375  
R09  22981348.187   122719076.172        -398.684          35.125  
R01  19392373.386   103663345.591        1283.848          35.125  
R24  19741611.533   105567292.404        -868.167          37.250  
R17  21156345.231   113211789.831        3474.664          39.750  
R08  21117213.974   113081698.482       -2350.173          36.375  
E12                                      1488.762          36.750                                        1111.793          38.250  
> 2024 06 26 15 00 35.0000000  0 17       0.000000000000
G02  23109004.510                       -2540.651          19.375                                                                  
G03  20098744.012   105619611.808        -138.457          43.000    20098743.700    78871793.130        -103.432          37.625  
G04  20506780.282   107763896.104        2046.232          40.375    20506781.924    80472978.894        1528.118          40.625  
G06  22913608.399   120411861.920        3581.272          34.250    22913618.069    89917954.640        2674.576          34.750  
G09  22811246.328   119873974.000        3859.524          35.125    22811249.995    89516265.952        2882.343          32.875  
G17  23038379.497   121067502.794       -1410.170          39.125                                                                  
G19  22393588.712   117679068.503         -59.308          35.250                                                                  
G28  23734696.373   124726664.594       -1607.222          37.000                                                                  
G31  22068057.272   115968452.368         327.085          39.750                                                                  
R10  22534486.016                        2498.511          22.000  
R02  22324156.396   119126246.098        3862.416          27.875  
R09  22981536.719   122720074.766        -399.272          35.125  
R01  19392253.817   103662662.384        1283.574          35.250  
R24  19741889.201   105568761.419        -869.013          39.375  
R17  21155805.111   113208916.391        3474.045          39.250  
R08  21117758.770   113084650.063       -2350.271          36.625  
E12                                      1488.576          37.000                                        1111.591          38.500  
> 2024 06 26 15 00 36.0000000  0 17       0.000000000000
G02  23109601.587                       -2538.441          21.375                                                                  
G03  20098883.613   105620340.074        -138.153          43.000    20098882.185    78872337.006        -103.339          38.625  
G04  20506502.125   107762439.641        2046.500          41.125    20506505.164    80471891.265        1528.166          40.875  
G06  22913041.825   120408870.315        3581.698          35.500    22913046.958    89915720.651        2674.885          34.125  
G09  22810626.985   119870704.345        3859.764          34.250    22810628.697    89513824.384        2881.990          32.625  
G17  23038759.004   121069502.613       -1409.803          37.750                                                                  
G19  22393712.887   117679717.945         -59.272          35.500                                                                  
G28  23735112.526   124728861.748       -1607.192          37.250                                                                  
G31  22068111.577   115968714.940         327.450          40.250                                                                  
R10  22534110.487                        2496.802          22.500  
R02  22323556.876   119122982.721        3862.870          27.625  
R09  22981715.479   122721073.573        -399.522          34.750  
R01  19392131.805   103661979.172        1283.318          35.250  
R24  19742158.423   105570230.705        -869.223          40.125  
R17  21155264.224   113206043.025        3474.045          39.500  
R08  21118312.779   113087601.289       -2349.809          36.875  
E12  24144605.747   126880758.781        1488.845          36.875    24144607.110    94748623.932        1111.631          37.750  
> 2024 06 26 15 00 37.0000000  0 17       0.000000000000
G02  23110199.920                       -2535.734          20.125                                                                  
G03  20099019.097   105621068.733        -138.479          43.000    20099021.088    78872881.106        -103.399          38.875  
G04  20506226.761   107760983.653        2045.991          41.125    20506228.333    80470803.997        1527.774          41.000  
G06  22912467.084   120405878.952        3581.582          35.000    22912477.103    89913486.878        2674.393          34.125  
G09  22810006.036   119867435.373        3859.478          34.250    22810006.422    89511382.851        2882.356          32.750  
G17  23039134.882   121071502.803       -1410.163          36.000                                                                  
G19  22393830.362   117680367.983         -59.891          34.250                                                                  
G28  23735530.703   124731059.329       -1607.439          36.250                                                                  
G31  22068158.622   115968978.261         326.589          40.250                                                                  
R10  22533787.378   120117470.326        2497.794          23.250  
R02  22322952.260   119119719.652        3862.387          28.000  
R09  22981906.594   122722073.144        -400.104          35.125  
R01  19391993.110   103661296.402        1282.857          35.250  
R24  19742431.414   105571700.819        -869.733          39.625  
R17  21154718.591   113203170.264        3473.509          39.250  
R08  21118864.904   113090552.748       -2350.132          36.250  
E12  24144437.038   126879860.243        1488.702          37.125    24144436.238    94747952.955        1111.512          37.875  
> 2024 06 26 15 00 38.0000000  0 17       0.000000000000
G02  23110791.343                       -2543.550          18.500                                                                  
G03  20099162.119   105621797.671        -138.469          43.625    20099159.783    78873425.448        -103.402          39.000  
G04  20505946.929   107759528.005        2045.955          40.500    20505951.433    80469716.998        1527.808          41.375  
G06  22911901.488   120402887.756        3581.805          35.125    22911909.901    89911253.179        2674.751          33.500  
G09  22809382.295   119864166.010        3859.989          33.875    22809384.287    89508941.474        2882.172          33.000  
G17  23039518.019   121073503.258       -1410.228          35.875                                                                  
G19  22393952.374   117681018.615         -60.357          34.625                                                                  
G28  23735948.113   124733257.321       -1607.694          36.625                                                                  
G31  22068211.322   115969242.136         326.586          40.500                                                                  
R10  22533415.060   120115571.127        2497.445          24.000  
R02  22322359.302   119116456.645        3862.562          27.625  
R09  22982086.052   122723073.399        -400.328          35.000  
R01  19391867.189   103660614.019        1282.779          35.125  
R24  19742705.243   105573171.669        -870.141          39.000  
R17  21154184.823   113200297.998        3473.432          38.625  
R08  21119415.424   113093504.231       -2349.746          35.750  
E12  24144263.862   126878961.977        1488.937          37.250    24144265.225    94747282.211        1111.424          38.000  
> 2024 06 26 15 00 39.0000000  0 17       0.000000000000
G02  23111381.300                       -2543.475          17.625                                                                  
G03  20099297.044   105622527.263        -139.772          43.500    20099297.988    78873970.231        -104.217          38.250  
G04  20505670.587   107758073.109        2044.612          40.250    20505674.603    80468630.521        1526.919          41.000  
G06  22911334.146   120399897.111        3580.600          35.000    22911339.907    89909019.925        2673.638          33.625  
G09  22808763.371   119860897.102        3858.973          34.000    22808762.221    89506500.386        2881.623          32.500  
G17  23039894.804   121075504.381       -1411.439          35.750                                                                  
G19  22394079.761   117681670.131         -61.588          34.500                                                                  
G28  23736368.942   124735456.019       -1608.995          36.375                                                                  
G31  22068258.787   115969506.944         324.808          40.000                                                                  
R10  22533054.329                        2493.281          23.625  
R02  22321745.473   119113194.125        3861.615          27.750  
R09  22982267.325   122724074.733        -401.885          34.875  
R01  19391737.918   103659932.418        1281.358          34.750  
R24  19742979.630   105574643.584        -871.866          38.375  
R17  21153653.010   113197426.655        3471.886          38.875  
R08  21119973.482   113096456.163       -2350.652          35.250  
E12  24144093.897   126878064.362        1487.237          37.000    24144094.143    94746611.869        1110.733          37.500  
> 2024 06 26 15 00 40.0000000  0 17       0.000000000000
G02  23111975.446                       -2542.968          22.000                                                                  
G03  20099439.438   105623257.700        -140.529          43.375    20099437.101    78874515.690        -104.735          38.375  
G04  20505395.153   107756619.113        2044.019          40.000    20505398.052    80467544.762        1526.446          41.125  
G06  22910764.431   120396907.233        3579.907          35.125    22910770.192    89906787.170        2673.503          34.750  
G09  22808138.862   119857628.893        3858.353          33.250    22808138.620    89504059.868        2881.213          32.500  
G17  23040277.941   121077506.312       -1412.079          36.000                                                                  
G19  22394206.798   117682322.832         -62.904          35.500                                                                  
G28  23736783.909   124737655.619       -1609.652          35.750                                                                  
G31  22068313.510   115969772.876         323.841          39.625                                                                  
R10  22532703.021                        2495.479          23.375  
R02  22321124.384   119109932.291        3861.313          27.875  
R09  22982462.558   122725077.317        -403.353          34.750  
R01  19391598.316   103659251.763        1280.824          34.500  
R24  19743257.507   105576116.856        -873.324          38.500  
R17  21153119.801   113194556.422        3470.834          39.250  
R08  21120520.791   113099408.794       -2351.340          35.750  
E12  24143920.791   126877167.535        1486.899          36.500    24143923.759    94745942.138        1110.464          37.875  
> 2024 06 26 15 00 41.0000000  0 17       0.000000000000
G02  23112555.351                       -2540.482          21.625                                                                  
G03  20099573.386   105623988.532        -140.455          42.875    20099575.935    78875061.466        -104.828          38.250  
G04  20505116.926   107755165.685        2043.700          40.125    20505120.942    80466459.389        1526.324          41.125  
G06  22910199.881   120393917.658        3580.027          35.875    22910201.384    89904554.757        2673.118          35.000  
G09  22807516.238   119854360.960        3858.493          32.750    22807518.439    89501619.518        2881.191          32.500  
G17  23040663.382   121079508.774       -1412.393          36.500                                                                  
G19  22394329.299   117682976.122         -63.021          34.875                                                                  
G28  23737205.646   124739855.816       -1609.891          37.500                                                                  
