% program   : RTKLIB ver.demo5 b34j
% inp file  : garmin.obs
% inp file  : u-blox9.nav
% obs start : 2024/06/26 15:05:42.0 UTC (week2320 313560.0s)
% obs end   : 2024/06/26 15:22:42.0 UTC (week2320 314580.0s)
% pos mode  : PPP Static
% solution  : Combined-No Phase Reset
% elev mask : 10.0 deg
% dynamics  : off
% tidecorr  : off
% tropo opt : Saastamoinen
% ephemeris : Broadcast
% navi sys  : GPS Galileo
% antenna1  :                       ( 0.0000  0.0000  0.0000)
%
% (lat/lon/height=WGS84/ellipsoidal,Q=1:fix,2:float,3:sbas,4:dgps,5:single,6:ppp,ns=# of satellites)
%  UTC                   latitude(deg) longitude(deg)  height(m)   Q  ns   sdn(m)   sde(m)   sdu(m)  sdne(m)  sdeu(m)  sdun(m) age(s)  ratio
2024/06/26 15:05:42.000   50.276576909   18.917949922   344.7459   6   7   0.0813   0.1001   0.2030   0.0501  -0.1118  -0.0489   0.00    0.0
2024/06/26 15:05:43.000   50.276576873   18.917949863   344.7393   6   7   0.0813   0.1001   0.2030   0.0501  -0.1118  -0.0489   0.00    0.0
2024/06/26 15:05:44.000   50.276576816   18.917949801   344.7376   6   7   0.0813   0.1001   0.2030   0.0501  -0.1118  -0.0489   0.00    0.0
2024/06/26 15:05:45.000   50.276576750   18.917949763   344.7324   6   7   0.0813   0.1001   0.2030   0.0501  -0.1118  -0.0489   0.00    0.0
2024/06/26 15:05:46.000   50.276576788   18.917949796   344.7310   6   7   0.0813   0.1001   0.2030   0.0501  -0.1118  -0.0489   0.00    0.0
2024/06/26 15:05:47.000   50.276576746   18.917949741   344.7350   6   7   0.0813   0.1001   0.2030   0.0501  -0.1118  -0.0489   0.00    0.0
2024/06/26 15:05:48.000   50.276576710   18.917949741   344.7278   6   7   0.0813   0.1001   0.2030   0.0501  -0.1119  -0.0490   0.00    0.0
2024/06/26 15:05:49.000   50.276576755   18.917949760   344.7211   6   7   0.0813   0.1001   0.2030   0.0501  -0.1119  -0.0490   0.00    0.0
2024/06/26 15:05:50.000   50.276576728   18.917949686   344.7388   6   6   0.0813   0.1001   0.2030   0.0501  -0.1119  -0.0489   0.00    0.0
2024/06/26 15:05:51.000   50.276576729   18.917949740   344.7219   6   7   0.0813   0.1001   0.2030   0.0501  -0.1119  -0.0489   0.00    0.0
2024/06/26 15:05:52.000   50.276576731   18.917949775   344.7305   6   7   0.0813   0.1001   0.2030   0.0501  -0.1119  -0.0489   0.00    0.0
2024/06/26 15:05:53.000   50.276576728   18.917949725   344.7332   6   7   0.0813   0.1001   0.2030   0.0501  -0.1119  -0.0489   0.00    0.0
2024/06/26 15:05:54.000   50.276576699   18.917949707   344.7221   6   7   0.0813   0.1001   0.2030   0.0501  -0.1119  -0.0489   0.00    0.0
2024/06/26 15:05:55.000   50.276576639   18.917949719   344.7034   6   7   0.0813   0.1001   0.2030   0.0501  -0.1119  -0.0490   0.00    0.0
2024/06/26 15:05:56.000   50.276576589   18.917949628   344.7062   6   7   0.0813   0.1001   0.2030   0.0501  -0.1119  -0.0490   0.00    0.0
2024/06/26 15:05:57.000   50.276576564   18.917949584   344.7154   6   7   0.0813   0.1001   0.2030   0.0501  -0.1119  -0.0490   0.00    0.0
2024/06/26 15:05:58.000   50.276576613   18.917949641   344.7157   6   7   0.0813   0.1001   0.2030   0.0501  -0.1119  -0.0490   0.00    0.0
2024/06/26 15:05:59.000   50.276576612   18.917949626   344.7173   6   7   0.0813   0.1001   0.2030   0.0501  -0.1119  -0.0490   0.00    0.0
2024/06/26 15:06:00.000   50.276576592   18.917949619   344.7168   6   7   0.0813   0.1001   0.2030   0.0501  -0.1119  -0.0490   0.00    0.0
2024/06/26 15:06:01.000   50.276576592   18.917949617   344.7088   6   7   0.0813   0.1001   0.2030   0.0501  -0.1119  -0.0490   0.00    0.0
2024/06/26 15:06:02.000   50.276576509   18.917949468   344.7071   6   7   0.0813   0.1001   0.2030   0.0501  -0.1119  -0.0490   0.00    0.0
2024/06/26 15:06:03.000   50.276576499   18.917949488   344.7088   6   6   0.0813   0.1001   0.2030   0.0501  -0.1119  -0.0490   0.00    0.0
2024/06/26 15:06:04.000   50.276576520   18.917949546   344.7061   6   6   0.0813   0.1001   0.2030   0.0501  -0.1119  -0.0490   0.00    0.0
2024/06/26 15:06:05.000   50.276576518   18.917949541   344.6996   6   6   0.0813   0.1001   0.2030   0.0501  -0.1119  -0.0490   0.00    0.0
2024/06/26 15:06:06.000   50.276576446   18.917949422   344.6973   6   7   0.0813   0.1001   0.2030   0.0501  -0.1119  -0.0490   0.00    0.0
2024/06/26 15:06:07.000   50.276576374   18.917949380   344.6998   6   7   0.0812   0.1001   0.2030   0.0501  -0.1119  -0.0490   0.00    0.0
2024/06/26 15:06:08.000   50.276576372   18.917949311   344.7028   6   7   0.0812   0.1001   0.2030   0.0501  -0.1119  -0.0490   0.00    0.0
2024/06/26 15:06:09.000   50.276576413   18.917949406   344.6924   6   7   0.0812   0.1001   0.2030   0.0501  -0.1119  -0.0490   0.00    0.0
2024/06/26 15:06:10.000   50.276576433   18.917949387   344.6993   6   7   0.0812   0.1001   0.2030   0.0501  -0.1119  -0.0490   0.00    0.0
2024/06/26 15:06:11.000   50.276576413   18.917949406   344.6965   6   7   0.0812   0.1001   0.2030   0.0501  -0.1119  -0.0490   0.00    0.0
2024/06/26 15:06:12.000   50.276576390   18.917949334   344.7002   6   7   0.0812   0.1001   0.2030   0.0501  -0.1119  -0.0490   0.00    0.0
2024/06/26 15:06:13.000   50.276576381   18.917949329   344.7053   6   7   0.0812   0.1001   0.2030   0.0501  -0.1119  -0.0490   0.00    0.0
2024/06/26 15:06:14.000   50.276576429   18.917949352   344.6953   6   7   0.0812   0.1001   0.2030   0.0501  -0.1119  -0.0490   0.00    0.0
2024/06/26 15:06:15.000   50.276576440   18.917949361   344.7044   6   7   0.0812   0.1001   0.2030   0.0501  -0.1119  -0.0490   0.00    0.0
2024/06/26 15:06:16.000   50.276576418   18.917949344   344.7048   6   7   0.0812   0.1001   0.2030   0.0501  -0.1119  -0.0490   0.00    0.0
2024/06/26 15:06:17.000   50.276576426   18.917949369   344.7075   6   7   0.0812   0.1001   0.2030   0.0501  -0.1119  -0.0490   0.00    0.0
2024/06/26 15:06:18.000   50.276576418   18.917949357   344.7114   6   7   0.0812   0.1001   0.2030   0.0501  -0.1119  -0.0490   0.00    0.0
2024/06/26 15:06:19.000   50.276576437   18.917949337   344.7068   6   7   0.0812   0.1001   0.2030   0.0501  -0.1119  -0.0490   0.00    0.0
2024/06/26 15:06:20.000   50.276576452   18.917949350   344.7054   6   7   0.0812   0.1001   0.2030   0.0501  -0.1119  -0.0491   0.00    0.0
2024/06/26 15:06:21.000   50.276576460   18.917949381   344.7016   6   7   0.0813   0.1001   0.2030   0.0501  -0.1119  -0.0491   0.00    0.0
2024/06/26 15:06:22.000   50.276576468   18.917949411   344.7008   6   7   0.0813   0.1001   0.2030   0.0501  -0.1119  -0.0491   0.00    0.0
2024/06/26 15:06:23.000   50.276576442   18.917949389   344.7014   6   6   0.0813   0.1001   0.2031   0.0501  -0.1119  -0.0490   0.00    0.0
2024/06/26 15:06:24.000   50.276576369   18.917949326   344.6978   6   6   0.0813   0.1001   0.2031   0.0501  -0.1119  -0.0490   0.00    0.0
2024/06/26 15:06:25.000   50.276576346   18.917949263   344.6932   6   6   0.0813   0.1001   0.2031   0.0501  -0.1119  -0.0490   0.00    0.0
2024/06/26 15:06:26.000   50.276576329   18.917949301   344.6841   6   6   0.0813   0.1001   0.2031   0.0501  -0.1119  -0.0490   0.00    0.0
2024/06/26 15:06:27.000   50.276576279   18.917949260   344.6868   6   6   0.0813   0.1001   0.2031   0.0501  -0.1119  -0.0490   0.00    0.0
2024/06/26 15:06:28.000   50.276576276   18.917949188   344.6951   6   6   0.0813   0.1001   0.2031   0.0501  -0.1119  -0.0490   0.00    0.0
2024/06/26 15:06:29.000   50.276576256   18.917949211   344.6832   6   6   0.0813   0.1001   0.2031   0.0501  -0.1119  -0.0490   0.00    0.0
2024/06/26 15:06:30.000   50.276576203   18.917949165   344.6804   6   6   0.0813   0.1001   0.2031   0.0501  -0.1119  -0.0489   0.00    0.0
2024/06/26 15:06:31.000   50.276576171   18.917949153   344.6715   6   7   0.0813   0.1001   0.2031   0.0501  -0.1119  -0.0489   0.00    0.0
2024/06/26 15:06:32.000   50.276576169   18.917949163   344.6637   6   7   0.0813   0.1001   0.2031   0.0501  -0.1119  -0.0489   0.00    0.0
2024/06/26 15:06:33.000   50.276576140   18.917949116   344.6657   6   7   0.0813   0.1001   0.2031   0.0501  -0.1119  -0.0489   0.00    0.0
2024/06/26 15:06:34.000   50.276576193   18.917949159   344.6633   6   7   0.0813   0.1001   0.2031   0.0501  -0.1119  -0.0489   0.00    0.0
2024/06/26 15:06:35.000   50.276576157   18.917949162   344.6656   6   7   0.0813   0.1001   0.2031   0.0501  -0.1119  -0.0489   0.00    0.0
2024/06/26 15:06:36.000   50.276576153   18.917949128   344.6564   6   7   0.0813   0.1002   0.2031   0.0501  -0.1119  -0.0489   0.00    0.0
2024/06/26 15:06:37.000   50.276576148   18.917949167   344.6656   6   7   0.0813   0.1002   0.2031   0.0501  -0.1119  -0.0489   0.00    0.0
2024/06/26 15:06:38.000   50.276576156   18.917949199   344.6645   6   7   0.0813   0.1002   0.2031   0.0501  -0.1119  -0.0489   0.00    0.0
2024/06/26 15:06:39.000   50.276576180   18.917949218   344.6675   6   7   0.0813   0.1002   0.2031   0.0501  -0.1119  -0.0489   0.00    0.0
2024/06/26 15:06:40.000   50.276576154   18.917949161   344.6672   6   7   0.0813   0.1002   0.2031   0.0501  -0.1119  -0.0489   0.00    0.0
2024/06/26 15:06:41.000   50.276576177   18.917949174   344.6683   6   7   0.0813   0.1002   0.2031   0.0501  -0.1119  -0.0489   0.00    0.0
2024/06/26 15:06:42.000   50.276576147   18.917949144   344.6695   6   7   0.0813   0.1002   0.2031   0.0502  -0.1119  -0.0490   0.00    0.0
2024/06/26 15:06:43.000   50.276576122   18.917949182   344.6573   6   6   0.0813   0.1002   0.2031   0.0502  -0.1119  -0.0489   0.00    0.0
2024/06/26 15:06:44.000   50.276576102   18.917949170   344.6612   6   7   0.0813   0.1002   0.2031   0.0501  -0.1119  -0.0490   0.00    0.0
2024/06/26 15:06:45.000   50.276576103   18.917949195   344.6588   6   7   0.0813   0.1002   0.2031   0.0501  -0.1119  -0.0490   0.00    0.0
2024/06/26 15:06:46.000   50.276576127   18.917949216   344.6531   6   7   0.0813   0.1002   0.2031   0.0501  -0.1119  -0.0490   0.00    0.0
2024/06/26 15:06:47.000   50.276576112   18.917949224   344.6571   6   7   0.0813   0.1002   0.2031   0.0502  -0.1119  -0.0490   0.00    0.0
2024/06/26 15:06:48.000   50.276576126   18.917949230   344.6617   6   6   0.0813   0.1002   0.2031   0.0502  -0.1119  -0.0490   0.00    0.0
2024/06/26 15:06:49.000   50.276576076   18.917949133   344.6654   6   7   0.0813   0.1002   0.2031   0.0502  -0.1119  -0.0490   0.00    0.0
2024/06/26 15:06:50.000   50.276576113   18.917949235   344.6601   6   7   0.0813   0.1002   0.2031   0.0502  -0.1119  -0.0490   0.00    0.0
2024/06/26 15:06:51.000   50.276576079   18.917949180   344.6586   6   7   0.0813   0.1002   0.2031   0.0502  -0.1119  -0.0490   0.00    0.0
2024/06/26 15:06:52.000   50.276576042   18.917949128   344.6680   6   7   0.0813   0.1002   0.2031   0.0502  -0.1119  -0.0490   0.00    0.0
2024/06/26 15:06:53.000   50.276576079   18.917949174   344.6663   6   7   0.0813   0.1002   0.2031   0.0502  -0.1119  -0.0490   0.00    0.0
2024/06/26 15:06:54.000   50.276576062   18.917949116   344.6678   6   7   0.0813   0.1002   0.2031   0.0502  -0.1119  -0.0490   0.00    0.0
2024/06/26 15:06:55.000   50.276576067   18.917949180   344.6530   6   6   0.0813   0.1002   0.2032   0.0502  -0.1119  -0.0490   0.00    0.0
2024/06/26 15:06:56.000   50.276576071   18.917949138   344.6572   6   7   0.0813   0.1002   0.2032   0.0502  -0.1119  -0.0490   0.00    0.0
2024/06/26 15:06:57.000   50.276576113   18.917949161   344.6605   6   7   0.0813   0.1002   0.2032   0.0502  -0.1120  -0.0490   0.00    0.0
2024/06/26 15:06:58.000   50.276576096   18.917949134   344.6582   6   7   0.0813   0.1002   0.2032   0.0502  -0.1120  -0.0490   0.00    0.0
2024/06/26 15:06:59.000   50.276576096   18.917949128   344.6564   6   6   0.0814   0.1002   0.2032   0.0502  -0.1119  -0.0489   0.00    0.0
2024/06/26 15:07:00.000   50.276576067   18.917949113   344.6451   6   6   0.0814   0.1002   0.2032   0.0502  -0.1119  -0.0489   0.00    0.0
2024/06/26 15:07:01.000   50.276576057   18.917949074   344.6505   6   6   0.0814   0.1002   0.2032   0.0502  -0.1119  -0.0489   0.00    0.0
2024/06/26 15:07:02.000   50.276576040   18.917949085   344.6531   6   6   0.0814   0.1002   0.2032   0.0502  -0.1119  -0.0489   0.00    0.0
2024/06/26 15:07:03.000   50.276576027   18.917949083   344.6553   6   6   0.0814   0.1002   0.2032   0.0502  -0.1120  -0.0489   0.00    0.0
2024/06/26 15:07:04.000   50.276575962   18.917949062   344.6473   6   6   0.0814   0.1002   0.2032   0.0502  -0.1119  -0.0489   0.00    0.0
2024/06/26 15:07:05.000   50.276575999   18.917949071   344.6452   6   6   0.0814   0.1002   0.2032   0.0502  -0.1119  -0.0489   0.00    0.0
2024/06/26 15:07:06.000   50.276575927   18.917948982   344.6507   6   6   0.0814   0.1002   0.2032   0.0502  -0.1119  -0.0489   0.00    0.0
2024/06/26 15:07:07.000   50.276575884   18.917948910   344.6434   6   6   0.0814   0.1002   0.2032   0.0502  -0.1119  -0.0489   0.00    0.0
2024/06/26 15:07:08.000   50.276575843   18.917948887   344.6408   6   6   0.0814   0.1002   0.2032   0.0502  -0.1119  -0.0489   0.00    0.0
2024/06/26 15:07:09.000   50.276575785   18.917948897   344.6281   6   6   0.0814   0.1002   0.2032   0.0502  -0.1119  -0.0489   0.00    0.0
2024/06/26 15:07:10.000   50.276575759   18.917948843   344.6294   6   6   0.0814   0.1002   0.2032   0.0503  -0.1119  -0.0488   0.00    0.0
2024/06/26 15:07:11.000   50.276575713   18.917948769   344.6287   6   6   0.0814   0.1002   0.2032   0.0503  -0.1119  -0.0488   0.00    0.0
2024/06/26 15:07:12.000   50.276575708   18.917948766   344.6331   6   6   0.0814   0.1002   0.2032   0.0503  -0.1119  -0.0488   0.00    0.0
2024/06/26 15:07:13.000   50.276575665   18.917948752   344.6219   6   6   0.0815   0.1002   0.2032   0.0503  -0.1119  -0.0488   0.00    0.0
2024/06/26 15:07:14.000   50.276575629   18.917948712   344.6162   6   6   0.0815   0.1002   0.2032   0.0503  -0.1119  -0.0488   0.00    0.0
2024/06/26 15:07:15.000   50.276575677   18.917948766   344.6283   6   6   0.0815   0.1002   0.2032   0.0503  -0.1119  -0.0488   0.00    0.0
2024/06/26 15:07:16.000   50.276575693   18.917948737   344.6246   6   6   0.0815   0.1002   0.2032   0.0503  -0.1119  -0.0488   0.00    0.0
2024/06/26 15:07:17.000   50.276575697   18.917948729   344.6253   6   6   0.0815   0.1002   0.2032   0.0503  -0.1119  -0.0488   0.00    0.0
2024/06/26 15:07:18.000   50.276575697   18.917948783   344.6259   6   6   0.0815   0.1002   0.2032   0.0503  -0.1119  -0.0488   0.00    0.0
2024/06/26 15:07:19.000   50.276575686   18.917948728   344.6262   6   6   0.0815   0.1002   0.2032   0.0503  -0.1119  -0.0488   0.00    0.0
2024/06/26 15:07:20.000   50.276575686   18.917948720   344.6278   6   6   0.0815   0.1002   0.2032   0.0503  -0.1119  -0.0488   0.00    0.0
2024/06/26 15:07:21.000   50.276575733   18.917948770   344.6172   6   6   0.0815   0.1002   0.2032   0.0503  -0.1119  -0.0488   0.00    0.0
2024/06/26 15:07:22.000   50.276575701   18.917948767   344.6162   6   7   0.0815   0.1002   0.2032   0.0503  -0.1119  -0.0488   0.00    0.0
2024/06/26 15:07:23.000   50.276575671   18.917948696   344.6154   6   6   0.0815   0.1002   0.2032   0.0503  -0.1119  -0.0488   0.00    0.0
2024/06/26 15:07:24.000   50.276575643   18.917948699   344.6115   6   7   0.0815   0.1002   0.2033   0.0503  -0.1119  -0.0488   0.00    0.0
2024/06/26 15:07:25.000   50.276575630   18.917948679   344.6056   6   6   0.0815   0.1002   0.2033   0.0503  -0.1119  -0.0488   0.00    0.0
2024/06/26 15:07:26.000   50.276575596   18.917948668   344.6008   6   7   0.0815   0.1002   0.2033   0.0503  -0.1119  -0.0488   0.00    0.0
2024/06/26 15:07:27.000   50.276575637   18.917948699   344.5936   6   7   0.0815   0.1002   0.2033   0.0503  -0.1119  -0.0488   0.00    0.0
2024/06/26 15:07:28.000   50.276575606   18.917948643   344.6054   6   7   0.0815   0.1002   0.2033   0.0503  -0.1119  -0.0488   0.00    0.0
2024/06/26 15:07:29.000   50.276575607   18.917948637   344.5957   6   7   0.0815   0.1002   0.2033   0.0503  -0.1119  -0.0488   0.00    0.0
2024/06/26 15:07:30.000   50.276575596   18.917948637   344.6072   6   7   0.0815   0.1002   0.2033   0.0503  -0.1119  -0.0488   0.00    0.0
2024/06/26 15:07:31.000   50.276575616   18.917948659   344.6063   6   7   0.0815   0.1002   0.2033   0.0503  -0.1119  -0.0488   0.00    0.0
2024/06/26 15:07:32.000   50.276575609   18.917948630   344.6020   6   7   0.0815   0.1002   0.2033   0.0503  -0.1119  -0.0488   0.00    0.0
2024/06/26 15:07:33.000   50.276575648   18.917948701   344.6041   6   7   0.0815   0.1002   0.2033   0.0503  -0.1119  -0.0488   0.00    0.0
2024/06/26 15:07:34.000   50.276575631   18.917948697   344.5998   6   7   0.0815   0.1002   0.2033   0.0503  -0.1119  -0.0488   0.00    0.0
2024/06/26 15:07:35.000   50.276575622   18.917948682   344.6085   6   7   0.0815   0.1002   0.2033   0.0503  -0.1119  -0.0488   0.00    0.0
2024/06/26 15:07:36.000   50.276575582   18.917948654   344.6099   6   7   0.0815   0.1002   0.2033   0.0503  -0.1119  -0.0488   0.00    0.0
2024/06/26 15:07:37.000   50.276575596   18.917948624   344.6027   6   6   0.0815   0.1002   0.2033   0.0503  -0.1119  -0.0488   0.00    0.0
2024/06/26 15:07:38.000   50.276575553   18.917948601   344.5926   6   7   0.0815   0.1002   0.2033   0.0503  -0.1119  -0.0488   0.00    0.0
2024/06/26 15:07:39.000   50.276575554   18.917948586   344.5976   6   7   0.0815   0.1002   0.2033   0.0503  -0.1119  -0.0488   0.00    0.0
2024/06/26 15:07:40.000   50.276575594   18.917948639   344.5892   6   7   0.0815   0.1002   0.2033   0.0503  -0.1120  -0.0488   0.00    0.0
2024/06/26 15:07:41.000   50.276575566   18.917948584   344.5921   6   7   0.0815   0.1002   0.2033   0.0503  -0.1120  -0.0488   0.00    0.0
2024/06/26 15:07:42.000   50.276575518   18.917948516   344.5977   6   7   0.0815   0.1002   0.2033   0.0503  -0.1120  -0.0488   0.00    0.0
2024/06/26 15:07:43.000   50.276575574   18.917948601   344.5932   6   6   0.0815   0.1002   0.2033   0.0503  -0.1120  -0.0488   0.00    0.0
2024/06/26 15:07:44.000   50.276575518   18.917948521   344.5936   6   7   0.0815   0.1002   0.2033   0.0503  -0.1120  -0.0488   0.00    0.0
2024/06/26 15:07:45.000   50.276575573   18.917948582   344.5941   6   6   0.0815   0.1002   0.2033   0.0503  -0.1120  -0.0488   0.00    0.0
2024/06/26 15:07:46.000   50.276575563   18.917948607   344.5968   6   6   0.0815   0.1002   0.2033   0.0503  -0.1120  -0.0488   0.00    0.0
2024/06/26 15:07:47.000   50.276575560   18.917948574   344.5884   6   7   0.0815   0.1002   0.2033   0.0503  -0.1120  -0.0488   0.00    0.0
2024/06/26 15:07:48.000   50.276575546   18.917948500   344.5995   6   7   0.0815   0.1002   0.2033   0.0503  -0.1120  -0.0488   0.00    0.0
2024/06/26 15:07:49.000   50.276575525   18.917948456   344.5941   6   6   0.0815   0.1002   0.2033   0.0503  -0.1120  -0.0488   0.00    0.0
2024/06/26 15:07:50.000   50.276575511   18.917948402   344.5995   6   7   0.0815   0.1002   0.2033   0.0503  -0.1120  -0.0488   0.00    0.0
2024/06/26 15:07:51.000   50.276575472   18.917948360   344.6011   6   7   0.0815   0.1002   0.2033   0.0503  -0.1120  -0.0488   0.00    0.0
2024/06/26 15:07:52.000   50.276575493   18.917948408   344.6035   6   7   0.0815   0.1002   0.2033   0.0503  -0.1120  -0.0488   0.00    0.0
2024/06/26 15:07:53.000   50.276575483   18.917948373   344.5976   6   7   0.0815   0.1002   0.2033   0.0503  -0.1120  -0.0488   0.00    0.0
2024/06/26 15:07:54.000   50.276575454   18.917948373   344.6084   6   5   0.0815   0.1002   0.2033   0.0503  -0.1120  -0.0488   0.00    0.0
2024/06/26 15:07:55.000   50.276575451   18.917948327   344.5998   6   6   0.0815   0.1002   0.2033   0.0503  -0.1120  -0.0488   0.00    0.0
2024/06/26 15:07:56.000   50.276575441   18.917948288   344.6054   6   6   0.0815   0.1002   0.2033   0.0503  -0.1120  -0.0488   0.00    0.0
2024/06/26 15:07:57.000   50.276575400   18.917948245   344.6017   6   6   0.0815   0.1002   0.2033   0.0503  -0.1120  -0.0487   0.00    0.0
2024/06/26 15:07:58.000   50.276575381   18.917948267   344.5962   6   7   0.0815   0.1002   0.2033   0.0503  -0.1120  -0.0488   0.00    0.0
2024/06/26 15:07:59.000   50.276575389   18.917948292   344.5899   6   6   0.0815   0.1002   0.2033   0.0503  -0.1120  -0.0487   0.00    0.0
2024/06/26 15:08:00.000   50.276575338   18.917948251   344.5883   6   6   0.0815   0.1002   0.2033   0.0504  -0.1120  -0.0487   0.00    0.0
2024/06/26 15:08:01.000   50.276575337   18.917948237   344.5904   6   7   0.0815   0.1002   0.2033   0.0504  -0.1120  -0.0487   0.00    0.0
2024/06/26 15:08:02.000   50.276575322   18.917948239   344.5835   6   6   0.0816   0.1003   0.2033   0.0504  -0.1120  -0.0487   0.00    0.0
2024/06/26 15:08:03.000   50.276575278   18.917948187   344.5870   6   6   0.0816   0.1003   0.2033   0.0504  -0.1120  -0.0487   0.00    0.0
2024/06/26 15:08:04.000   50.276575287   18.917948211   344.5908   6   7   0.0815   0.1003   0.2033   0.0504  -0.1120  -0.0487   0.00    0.0
2024/06/26 15:08:05.000   50.276575294   18.917948193   344.5974   6   6   0.0816   0.1003   0.2033   0.0504  -0.1120  -0.0487   0.00    0.0
2024/06/26 15:08:06.000   50.276575266   18.917948137   344.5847   6   6   0.0816   0.1003   0.2033   0.0504  -0.1120  -0.0487   0.00    0.0
2024/06/26 15:08:07.000   50.276575236   18.917948156   344.5854   6   7   0.0816   0.1003   0.2034   0.0504  -0.1120  -0.0487   0.00    0.0
2024/06/26 15:08:08.000   50.276575224   18.917948122   344.5836   6   7   0.0816   0.1003   0.2034   0.0504  -0.1120  -0.0487   0.00    0.0
2024/06/26 15:08:09.000   50.276575230   18.917948160   344.5748   6   7   0.0816   0.1003   0.2034   0.0504  -0.1120  -0.0487   0.00    0.0
2024/06/26 15:08:10.000   50.276575282   18.917948216   344.5751   6   7   0.0816   0.1003   0.2034   0.0504  -0.1120  -0.0487   0.00    0.0
2024/06/26 15:08:11.000   50.276575255   18.917948131   344.5852   6   7   0.0816   0.1003   0.2034   0.0504  -0.1120  -0.0487   0.00    0.0
2024/06/26 15:08:12.000   50.276575232   18.917948123   344.5811   6   7   0.0816   0.1003   0.2034   0.0504  -0.1120  -0.0487   0.00    0.0
2024/06/26 15:08:13.000   50.276575248   18.917948093   344.5858   6   7   0.0816   0.1003   0.2034   0.0504  -0.1120  -0.0487   0.00    0.0
2024/06/26 15:08:14.000   50.276575215   18.917948106   344.5775   6   6   0.0816   0.1003   0.2034   0.0504  -0.1120  -0.0487   0.00    0.0
2024/06/26 15:08:15.000   50.276575199   18.917948113   344.5810   6   7   0.0816   0.1003   0.2034   0.0504  -0.1120  -0.0487   0.00    0.0
2024/06/26 15:08:16.000   50.276575149   18.917948070   344.5752   6   7   0.0816   0.1003   0.2034   0.0504  -0.1120  -0.0487   0.00    0.0
2024/06/26 15:08:17.000   50.276575203   18.917948111   344.5808   6   7   0.0816   0.1003   0.2034   0.0504  -0.1120  -0.0487   0.00    0.0
2024/06/26 15:08:18.000   50.276575146   18.917948098   344.5783   6   7   0.0816   0.1003   0.2034   0.0504  -0.1120  -0.0487   0.00    0.0
2024/06/26 15:08:19.000   50.276575177   18.917948113   344.5658   6   6   0.0816   0.1003   0.2034   0.0504  -0.1120  -0.0487   0.00    0.0
2024/06/26 15:08:20.000   50.276575165   18.917948044   344.5675   6   6   0.0816   0.1003   0.2034   0.0504  -0.1120  -0.0486   0.00    0.0
2024/06/26 15:08:21.000   50.276575142   18.917948050   344.5692   6   7   0.0816   0.1003   0.2034   0.0504  -0.1120  -0.0486   0.00    0.0
2024/06/26 15:08:22.000   50.276575135   18.917948054   344.5632   6   7   0.0816   0.1003   0.2034   0.0504  -0.1120  -0.0486   0.00    0.0
2024/06/26 15:08:23.000   50.276575151   18.917948078   344.5527   6   7   0.0816   0.1003   0.2034   0.0504  -0.1120  -0.0487   0.00    0.0
2024/06/26 15:08:24.000   50.276575138   18.917948052   344.5655   6   7   0.0816   0.1003   0.2034   0.0504  -0.1120  -0.0487   0.00    0.0
2024/06/26 15:08:25.000   50.276575113   18.917948006   344.5570   6   6   0.0816   0.1003   0.2034   0.0504  -0.1120  -0.0486   0.00    0.0
2024/06/26 15:08:26.000   50.276575102   18.917948025   344.5591   6   7   0.0816   0.1003   0.2034   0.0504  -0.1120  -0.0487   0.00    0.0
2024/06/26 15:08:27.000   50.276575129   18.917948064   344.5618   6   7   0.0816   0.1003   0.2034   0.0504  -0.1120  -0.0487   0.00    0.0
2024/06/26 15:08:28.000   50.276575115   18.917948070   344.5554   6   7   0.0816   0.1003   0.2034   0.0504  -0.1120  -0.0487   0.00    0.0
2024/06/26 15:08:29.000   50.276575113   18.917948073   344.5595   6   7   0.0816   0.1003   0.2034   0.0504  -0.1120  -0.0487   0.00    0.0
2024/06/26 15:08:30.000   50.276575121   18.917948055   344.5635   6   7   0.0816   0.1003   0.2034   0.0504  -0.1120  -0.0487   0.00    0.0
2024/06/26 15:08:31.000   50.276575101   18.917948007   344.5592   6   7   0.0816   0.1003   0.2034   0.0504  -0.1120  -0.0487   0.00    0.0
2024/06/26 15:08:32.000   50.276575102   18.917947996   344.5646   6   7   0.0816   0.1003   0.2034   0.0504  -0.1120  -0.0487   0.00    0.0
2024/06/26 15:08:33.000   50.276575089   18.917947992   344.5620   6   6   0.0816   0.1003   0.2034   0.0504  -0.1120  -0.0486   0.00    0.0
2024/06/26 15:08:34.000   50.276575073   18.917948013   344.5546   6   7   0.0816   0.1003   0.2034   0.0504  -0.1120  -0.0486   0.00    0.0
2024/06/26 15:08:35.000   50.276575039   18.917947926   344.5623   6   7   0.0816   0.1003   0.2034   0.0504  -0.1120  -0.0486   0.00    0.0
2024/06/26 15:08:36.000   50.276575040   18.917948025   344.5539   6   6   0.0816   0.1003   0.2034   0.0504  -0.1120  -0.0487   0.00    0.0
2024/06/26 15:08:37.000   50.276575027   18.917947973   344.5584   6   7   0.0816   0.1003   0.2034   0.0504  -0.1120  -0.0486   0.00    0.0
2024/06/26 15:08:38.000   50.276575022   18.917947987   344.5587   6   7   0.0816   0.1003   0.2034   0.0504  -0.1120  -0.0486   0.00    0.0
2024/06/26 15:08:39.000   50.276575086   18.917948049   344.5568   6   6   0.0816   0.1003   0.2034   0.0504  -0.1120  -0.0487   0.00    0.0
2024/06/26 15:08:40.000   50.276575077   18.917947998   344.5595   6   7   0.0816   0.1003   0.2034   0.0504  -0.1120  -0.0486   0.00    0.0
2024/06/26 15:08:41.000   50.276575070   18.917948013   344.5551   6   7   0.0816   0.1003   0.2034   0.0504  -0.1120  -0.0486   0.00    0.0
2024/06/26 15:08:42.000   50.276575077   18.917948022   344.5619   6   7   0.0816   0.1003   0.2034   0.0504  -0.1120  -0.0486   0.00    0.0
2024/06/26 15:08:43.000   50.276575056   18.917947948   344.5595   6   7   0.0816   0.1003   0.2034   0.0504  -0.1120  -0.0486   0.00    0.0
2024/06/26 15:08:44.000   50.276575075   18.917948005   344.5670   6   7   0.0816   0.1003   0.2034   0.0504  -0.1120  -0.0486   0.00    0.0
2024/06/26 15:08:45.000   50.276575068   18.917947958   344.5641   6   7   0.0816   0.1003   0.2034   0.0504  -0.1120  -0.0486   0.00    0.0
2024/06/26 15:08:46.000   50.276575074   18.917947980   344.5672   6   7   0.0816   0.1003   0.2034   0.0504  -0.1120  -0.0486   0.00    0.0
2024/06/26 15:08:47.000   50.276575108   18.917948016   344.5645   6   7   0.0816   0.1003   0.2034   0.0504  -0.1120  -0.0486   0.00    0.0
2024/06/26 15:08:48.000   50.276575066   18.917947987   344.5644   6   7   0.0816   0.1003   0.2034   0.0504  -0.1120  -0.0486   0.00    0.0
2024/06/26 15:08:49.000   50.276575102   18.917948031   344.5589   6   7   0.0816   0.1003   0.2034   0.0504  -0.1120  -0.0486   0.00    0.0
2024/06/26 15:08:50.000   50.276575051   18.917947987   344.5714   6   7   0.0816   0.1003   0.2034   0.0504  -0.1120  -0.0486   0.00    0.0
2024/06/26 15:08:51.000   50.276575057   18.917947995   344.5607   6   6   0.0816   0.1003   0.2034   0.0504  -0.1120  -0.0486   0.00    0.0
2024/06/26 15:08:52.000   50.276575016   18.917947949   344.5529   6   6   0.0816   0.1003   0.2034   0.0505  -0.1120  -0.0486   0.00    0.0
2024/06/26 15:08:53.000   50.276575010   18.917947865   344.5543   6   7   0.0816   0.1003   0.2034   0.0505  -0.1120  -0.0486   0.00    0.0
2024/06/26 15:08:54.000   50.276574980   18.917947860   344.5582   6   7   0.0816   0.1003   0.2034   0.0505  -0.1120  -0.0486   0.00    0.0
2024/06/26 15:08:55.000   50.276574960   18.917947887   344.5535   6   7   0.0816   0.1003   0.2034   0.0505  -0.1120  -0.0486   0.00    0.0
2024/06/26 15:08:56.000   50.276574990   18.917947924   344.5517   6   7   0.0816   0.1003   0.2034   0.0505  -0.1120  -0.0486   0.00    0.0
2024/06/26 15:08:57.000   50.276574977   18.917947924   344.5546   6   7   0.0816   0.1003   0.2034   0.0505  -0.1120  -0.0486   0.00    0.0
2024/06/26 15:08:58.000   50.276574960   18.917947946   344.5489   6   7   0.0816   0.1003   0.2034   0.0505  -0.1120  -0.0486   0.00    0.0
2024/06/26 15:08:59.000   50.276574951   18.917947944   344.5562   6   7   0.0816   0.1003   0.2034   0.0505  -0.1120  -0.0486   0.00    0.0
2024/06/26 15:09:00.000   50.276574971   18.917947949   344.5526   6   7   0.0816   0.1003   0.2034   0.0505  -0.1120  -0.0486   0.00    0.0
2024/06/26 15:09:01.000   50.276574969   18.917947929   344.5570   6   7   0.0816   0.1003   0.2034   0.0505  -0.1120  -0.0486   0.00    0.0
2024/06/26 15:09:02.000   50.276574943   18.917947894   344.5615   6   7   0.0816   0.1003   0.2034   0.0505  -0.1120  -0.0486   0.00    0.0
2024/06/26 15:09:03.000   50.276574976   18.917947949   344.5510   6   7   0.0816   0.1003   0.2034   0.0505  -0.1120  -0.0486   0.00    0.0
2024/06/26 15:09:04.000   50.276574945   18.917947965   344.5490   6   7   0.0816   0.1003   0.2034   0.0505  -0.1120  -0.0486   0.00    0.0
2024/06/26 15:09:05.000   50.276574941   18.917947906   344.5596   6   7   0.0816   0.1003   0.2035   0.0505  -0.1120  -0.0486   0.00    0.0
2024/06/26 15:09:06.000   50.276574908   18.917947889   344.5541   6   7   0.0816   0.1003   0.2035   0.0505  -0.1120  -0.0486   0.00    0.0
2024/06/26 15:09:07.000   50.276574951   18.917947854   344.5653   6   7   0.0816   0.1003   0.2035   0.0505  -0.1120  -0.0486   0.00    0.0
2024/06/26 15:09:08.000   50.276574895   18.917947856   344.5493   6   7   0.0816   0.1003   0.2035   0.0505  -0.1120  -0.0486   0.00    0.0
2024/06/26 15:09:09.000   50.276574936   18.917947920   344.5460   6   7   0.0816   0.1003   0.2035   0.0505  -0.1120  -0.0486   0.00    0.0
2024/06/26 15:09:10.000   50.276574924   18.917947896   344.5544   6   7   0.0816   0.1003   0.2035   0.0505  -0.1120  -0.0486   0.00    0.0
2024/06/26 15:09:11.000   50.276574954   18.917947948   344.5489   6   7   0.0816   0.1003   0.2035   0.0505  -0.1120  -0.0486   0.00    0.0
2024/06/26 15:09:12.000   50.276574978   18.917947993   344.5448   6   7   0.0816   0.1003   0.2035   0.0505  -0.1120  -0.0486   0.00    0.0
2024/06/26 15:09:13.000   50.276574983   18.917947991   344.5451   6   7   0.0816   0.1003   0.2035   0.0505  -0.1120  -0.0486   0.00    0.0
2024/06/26 15:09:14.000   50.276574941   18.917947920   344.5441   6   7   0.0816   0.1003   0.2035   0.0505  -0.1120  -0.0486   0.00    0.0
2024/06/26 15:09:15.000   50.276574965   18.917948026   344.5458   6   7   0.0816   0.1003   0.2035   0.0505  -0.1120  -0.0486   0.00    0.0
2024/06/26 15:09:16.000   50.276574962   18.917947950   344.5481   6   7   0.0816   0.1003   0.2035   0.0505  -0.1120  -0.0486   0.00    0.0
2024/06/26 15:09:17.000   50.276574931   18.917947943   344.5430   6   7   0.0816   0.1003   0.2035   0.0505  -0.1120  -0.0486   0.00    0.0
2024/06/26 15:09:18.000   50.276574965   18.917947992   344.5481   6   7   0.0816   0.1003   0.2035   0.0505  -0.1120  -0.0486   0.00    0.0
2024/06/26 15:09:19.000   50.276574933   18.917947930   344.5440   6   6   0.0816   0.1003   0.2035   0.0505  -0.1120  -0.0486   0.00    0.0
2024/06/26 15:09:20.000   50.276574977   18.917947966   344.5578   6   7   0.0816   0.1003   0.2035   0.0505  -0.1120  -0.0486   0.00    0.0
2024/06/26 15:09:21.000   50.276574985   18.917947992   344.5513   6   7   0.0816   0.1003   0.2035   0.0505  -0.1120  -0.0486   0.00    0.0
2024/06/26 15:09:22.000   50.276574938   18.917947916   344.5507   6   6   0.0817   0.1003   0.2035   0.0505  -0.1120  -0.0486   0.00    0.0
2024/06/26 15:09:23.000   50.276574935   18.917947868   344.5430   6   6   0.0817   0.1003   0.2035   0.0505  -0.1120  -0.0486   0.00    0.0
2024/06/26 15:09:24.000   50.276574882   18.917947829   344.5376   6   6   0.0817   0.1003   0.2035   0.0505  -0.1120  -0.0486   0.00    0.0
2024/06/26 15:09:25.000   50.276574802   18.917947723   344.5448   6   7   0.0817   0.1003   0.2035   0.0505  -0.1120  -0.0486   0.00    0.0
2024/06/26 15:09:26.000   50.276574824   18.917947777   344.5434   6   6   0.0817   0.1003   0.2035   0.0505  -0.1120  -0.0486   0.00    0.0
2024/06/26 15:09:27.000   50.276574840   18.917947818   344.5420   6   7   0.0817   0.1003   0.2035   0.0505  -0.1120  -0.0486   0.00    0.0
2024/06/26 15:09:28.000   50.276574801   18.917947733   344.5454   6   6   0.0817   0.1003   0.2035   0.0505  -0.1120  -0.0486   0.00    0.0
2024/06/26 15:09:29.000   50.276574794   18.917947680   344.5437   6   6   0.0817   0.1003   0.2035   0.0505  -0.1120  -0.0486   0.00    0.0
2024/06/26 15:09:30.000   50.276574790   18.917947694   344.5458   6   6   0.0817   0.1003   0.2035   0.0505  -0.1120  -0.0486   0.00    0.0
2024/06/26 15:09:31.000   50.276574813   18.917947665   344.5411   6   6   0.0817   0.1003   0.2035   0.0505  -0.1120  -0.0486   0.00    0.0
2024/06/26 15:09:32.000   50.276574807   18.917947702   344.5293   6   6   0.0817   0.1003   0.2035   0.0505  -0.1120  -0.0486   0.00    0.0
2024/06/26 15:09:33.000   50.276574782   18.917947637   344.5393   6   6   0.0817   0.1003   0.2035   0.0505  -0.1120  -0.0486   0.00    0.0
2024/06/26 15:09:34.000   50.276574785   18.917947682   344.5318   6   5   0.0817   0.1003   0.2035   0.0505  -0.1120  -0.0486   0.00    0.0
2024/06/26 15:09:35.000   50.276574794   18.917947633   344.5450   6   6   0.0817   0.1003   0.2035   0.0505  -0.1120  -0.0486   0.00    0.0
2024/06/26 15:09:36.000   50.276574788   18.917947664   344.5410   6   6   0.0817   0.1003   0.2035   0.0505  -0.1120  -0.0486   0.00    0.0
2024/06/26 15:09:37.000   50.276574727   18.917947565   344.5452   6   6   0.0817   0.1003   0.2035   0.0505  -0.1120  -0.0485   0.00    0.0
2024/06/26 15:09:38.000   50.276574770   18.917947660   344.5356   6   7   0.0817   0.1003   0.2035   0.0505  -0.1120  -0.0486   0.00    0.0
2024/06/26 15:09:39.000   50.276574741   18.917947560   344.5449   6   7   0.0817   0.1003   0.2035   0.0505  -0.1120  -0.0486   0.00    0.0
2024/06/26 15:09:40.000   50.276574731   18.917947564   344.5588   6   7   0.0817   0.1003   0.2035   0.0505  -0.1120  -0.0485   0.00    0.0
2024/06/26 15:09:41.000   50.276574724   18.917947515   344.5456   6   6   0.0817   0.1003   0.2035   0.0505  -0.1120  -0.0485   0.00    0.0
2024/06/26 15:09:42.000   50.276574653   18.917947518   344.5344   6   6   0.0817   0.1003   0.2035   0.0505  -0.1120  -0.0485   0.00    0.0
2024/06/26 15:09:43.000   50.276574687   18.917947557   344.5375   6   7   0.0817   0.1003   0.2035   0.0505  -0.1120  -0.0485   0.00    0.0
2024/06/26 15:09:44.000   50.276574662   18.917947561   344.5375   6   6   0.0817   0.1003   0.2035   0.0505  -0.1120  -0.0485   0.00    0.0
2024/06/26 15:09:45.000   50.276574712   18.917947555   344.5405   6   7   0.0817   0.1003   0.2035   0.0505  -0.1120  -0.0485   0.00    0.0
2024/06/26 15:09:46.000   50.276574680   18.917947535   344.5473   6   7   0.0817   0.1003   0.2035   0.0505  -0.1120  -0.0485   0.00    0.0
2024/06/26 15:09:47.000   50.276574653   18.917947510   344.5419   6   6   0.0817   0.1003   0.2035   0.0505  -0.1120  -0.0485   0.00    0.0
2024/06/26 15:09:48.000   50.276574694   18.917947613   344.5339   6   7   0.0817   0.1003   0.2035   0.0505  -0.1120  -0.0485   0.00    0.0
2024/06/26 15:09:49.000   50.276574655   18.917947568   344.5316   6   6   0.0817   0.1003   0.2035   0.0505  -0.1120  -0.0485   0.00    0.0
2024/06/26 15:09:50.000   50.276574659   18.917947556   344.5416   6   7   0.0817   0.1003   0.2035   0.0505  -0.1120  -0.0485   0.00    0.0
2024/06/26 15:09:51.000   50.276574677   18.917947553   344.5395   6   7   0.0817   0.1003   0.2035   0.0505  -0.1120  -0.0485   0.00    0.0
2024/06/26 15:09:52.000   50.276574699   18.917947684   344.5278   6   7   0.0817   0.1003   0.2035   0.0505  -0.1120  -0.0485   0.00    0.0
2024/06/26 15:09:53.000   50.276574670   18.917947616   344.5326   6   7   0.0817   0.1003   0.2035   0.0505  -0.1120  -0.0485   0.00    0.0
2024/06/26 15:09:54.000   50.276574681   18.917947618   344.5278   6   7   0.0817   0.1003   0.2035   0.0505  -0.1120  -0.0485   0.00    0.0
2024/06/26 15:09:55.000   50.276574678   18.917947606   344.5335   6   6   0.0817   0.1003   0.2035   0.0505  -0.1120  -0.0485   0.00    0.0
2024/06/26 15:09:56.000   50.276574686   18.917947606   344.5342   6   7   0.0817   0.1003   0.2035   0.0505  -0.1120  -0.0485   0.00    0.0
2024/06/26 15:09:57.000   50.276574667   18.917947534   344.5330   6   4   0.0817   0.1003   0.2035   0.0505  -0.1120  -0.0485   0.00    0.0
2024/06/26 15:09:58.000   50.276574665   18.917947558   344.5369   6   5   0.0817   0.1003   0.2035   0.0505  -0.1120  -0.0485   0.00    0.0
2024/06/26 15:09:59.000   50.276574654   18.917947517   344.5392   6   6   0.0817   0.1003   0.2035   0.0505  -0.1120  -0.0485   0.00    0.0
2024/06/26 15:10:00.000   50.276574612   18.917947468   344.5429   6   4   0.0817   0.1004   0.2035   0.0506  -0.1120  -0.0485   0.00    0.0
2024/06/26 15:10:01.000   50.276574614   18.917947475   344.5432   6   6   0.0817   0.1004   0.2035   0.0506  -0.1120  -0.0485   0.00    0.0
2024/06/26 15:10:02.000   50.276574584   18.917947445   344.5349   6   6   0.0818   0.1004   0.2036   0.0506  -0.1120  -0.0485   0.00    0.0
2024/06/26 15:10:03.000   50.276574544   18.917947373   344.5283   6   6   0.0818   0.1003   0.2036   0.0505  -0.1120  -0.0485   0.00    0.0
2024/06/26 15:10:04.000   50.276574622   18.917947442   344.5175   6   4   0.0818   0.1004   0.2036   0.0505  -0.1120  -0.0486   0.00    0.0
2024/06/26 15:10:05.000   50.276574584   18.917947361   344.5243   6   7   0.0818   0.1004   0.2036   0.0505  -0.1120  -0.0486   0.00    0.0
2024/06/26 15:10:06.000   50.276574599   18.917947300   344.5201   6   4   0.0818   0.1004   0.2036   0.0506  -0.1120  -0.0486   0.00    0.0
2024/06/26 15:10:07.000   50.276574584   18.917947275   344.5266   6   6   0.0818   0.1004   0.2036   0.0505  -0.1120  -0.0486   0.00    0.0
2024/06/26 15:10:08.000   50.276574634   18.917947357   344.5129   6   5   0.0818   0.1004   0.2036   0.0505  -0.1120  -0.0486   0.00    0.0
2024/06/26 15:10:09.000   50.276574639   18.917947298   344.5011   6   6   0.0818   0.1004   0.2036   0.0505  -0.1120  -0.0487   0.00    0.0
2024/06/26 15:10:10.000   50.276574679   18.917947316   344.4890   6   6   0.0818   0.1004   0.2036   0.0505  -0.1120  -0.0487   0.00    0.0
2024/06/26 15:10:11.000   50.276574646   18.917947204   344.5022   6   6   0.0818   0.1004   0.2036   0.0506  -0.1120  -0.0487   0.00    0.0
2024/06/26 15:10:12.000   50.276574625   18.917947172   344.5032   6   6   0.0818   0.1004   0.2036   0.0506  -0.1120  -0.0487   0.00    0.0
2024/06/26 15:10:13.000   50.276574640   18.917947186   344.4946   6   6   0.0818   0.1004   0.2036   0.0506  -0.1120  -0.0487   0.00    0.0
2024/06/26 15:10:14.000   50.276574648   18.917947236   344.4955   6   7   0.0818   0.1004   0.2036   0.0505  -0.1120  -0.0487   0.00    0.0
2024/06/26 15:10:15.000   50.276574685   18.917947224   344.4978   6   5   0.0818   0.1004   0.2036   0.0506  -0.1120  -0.0486   0.00    0.0
2024/06/26 15:10:16.000   50.276574678   18.917947213   344.5007   6   5   0.0818   0.1004   0.2036   0.0506  -0.1120  -0.0486   0.00    0.0
2024/06/26 15:10:17.000   50.276574700   18.917947223   344.4963   6   5   0.0818   0.1004   0.2036   0.0506  -0.1120  -0.0486   0.00    0.0
2024/06/26 15:10:18.000   50.276574706   18.917947216   344.4969   6   5   0.0818   0.1004   0.2036   0.0506  -0.1120  -0.0486   0.00    0.0
2024/06/26 15:10:19.000   50.276574689   18.917947201   344.5066   6   6   0.0818   0.1004   0.2036   0.0506  -0.1120  -0.0486   0.00    0.0
2024/06/26 15:10:20.000   50.276574730   18.917947269   344.4951   6   6   0.0818   0.1004   0.2036   0.0506  -0.1120  -0.0486   0.00    0.0
2024/06/26 15:10:21.000   50.276574736   18.917947266   344.4951   6   6   0.0818   0.1004   0.2036   0.0506  -0.1120  -0.0486   0.00    0.0
2024/06/26 15:10:22.000   50.276574701   18.917947202   344.5022   6   6   0.0818   0.1004   0.2036   0.0506  -0.1120  -0.0486   0.00    0.0
2024/06/26 15:10:23.000   50.276574659   18.917947138   344.5038   6   7   0.0818   0.1004   0.2036   0.0506  -0.1120  -0.0487   0.00    0.0
2024/06/26 15:10:24.000   50.276574693   18.917947220   344.4974   6   7   0.0818   0.1004   0.2036   0.0506  -0.1120  -0.0487   0.00    0.0
2024/06/26 15:10:25.000   50.276574681   18.917947202   344.5111   6   7   0.0818   0.1004   0.2036   0.0506  -0.1120  -0.0487   0.00    0.0
2024/06/26 15:10:26.000   50.276574707   18.917947212   344.5017   6   7   0.0818   0.1004   0.2036   0.0506  -0.1120  -0.0487   0.00    0.0
2024/06/26 15:10:27.000   50.276574692   18.917947200   344.5019   6   6   0.0818   0.1004   0.2036   0.0506  -0.1120  -0.0486   0.00    0.0
2024/06/26 15:10:28.000   50.276574631   18.917947185   344.5015   6   6   0.0818   0.1004   0.2036   0.0506  -0.1120  -0.0486   0.00    0.0
2024/06/26 15:10:29.000   50.276574630   18.917947131   344.4930   6   7   0.0818   0.1004   0.2036   0.0506  -0.1120  -0.0486   0.00    0.0
2024/06/26 15:10:30.000   50.276574577   18.917947084   344.4916   6   6   0.0818   0.1004   0.2036   0.0506  -0.1120  -0.0486   0.00    0.0
2024/06/26 15:10:31.000   50.276574535   18.917947045   344.4862   6   6   0.0818   0.1004   0.2036   0.0506  -0.1120  -0.0486   0.00    0.0
2024/06/26 15:10:32.000   50.276574481   18.917946986   344.4832   6   6   0.0818   0.1004   0.2036   0.0506  -0.1120  -0.0486   0.00    0.0
2024/06/26 15:10:33.000   50.276574493   18.917946981   344.4853   6   7   0.0818   0.1004   0.2036   0.0506  -0.1120  -0.0486   0.00    0.0
2024/06/26 15:10:34.000   50.276574447   18.917946955   344.4746   6   6   0.0818   0.1004   0.2036   0.0506  -0.1120  -0.0486   0.00    0.0
2024/06/26 15:10:35.000   50.276574482   18.917946971   344.4745   6   7   0.0818   0.1004   0.2036   0.0506  -0.1120  -0.0486   0.00    0.0
2024/06/26 15:10:36.000   50.276574439   18.917946935   344.4753   6   7   0.0818   0.1004   0.2036   0.0506  -0.1120  -0.0486   0.00    0.0
2024/06/26 15:10:37.000   50.276574492   18.917947004   344.4699   6   7   0.0818   0.1004   0.2036   0.0506  -0.1120  -0.0486   0.00    0.0
2024/06/26 15:10:38.000   50.276574481   18.917946961   344.4712   6   7   0.0818   0.1004   0.2036   0.0506  -0.1120  -0.0486   0.00    0.0
2024/06/26 15:10:39.000   50.276574501   18.917947022   344.4686   6   7   0.0818   0.1004   0.2036   0.0506  -0.1120  -0.0486   0.00    0.0
2024/06/26 15:10:40.000   50.276574501   18.917947030   344.4818   6   7   0.0818   0.1004   0.2036   0.0506  -0.1120  -0.0486   0.00    0.0
2024/06/26 15:10:41.000   50.276574514   18.917947024   344.4781   6   7   0.0818   0.1004   0.2036   0.0506  -0.1120  -0.0486   0.00    0.0
2024/06/26 15:10:42.000   50.276574478   18.917946980   344.4685   6   6   0.0818   0.1004   0.2037   0.0506  -0.1120  -0.0486   0.00    0.0
2024/06/26 15:10:43.000   50.276574454   18.917946934   344.4831   6   6   0.0818   0.1004   0.2037   0.0506  -0.1120  -0.0486   0.00    0.0
2024/06/26 15:10:44.000   50.276574485   18.917946973   344.4744   6   6   0.0818   0.1004   0.2037   0.0506  -0.1120  -0.0486   0.00    0.0
2024/06/26 15:10:45.000   50.276574483   18.917946998   344.4817   6   7   0.0818   0.1004   0.2037   0.0506  -0.1120  -0.0486   0.00    0.0
2024/06/26 15:10:46.000   50.276574480   18.917946994   344.4819   6   7   0.0818   0.1004   0.2037   0.0506  -0.1120  -0.0486   0.00    0.0
2024/06/26 15:10:47.000   50.276574479   18.917947007   344.4819   6   7   0.0818   0.1004   0.2037   0.0506  -0.1120  -0.0486   0.00    0.0
2024/06/26 15:10:48.000   50.276574484   18.917946970   344.4828   6   7   0.0818   0.1004   0.2037   0.0506  -0.1120  -0.0486   0.00    0.0
2024/06/26 15:10:49.000   50.276574467   18.917947000   344.4799   6   7   0.0818   0.1004   0.2037   0.0506  -0.1120  -0.0486   0.00    0.0
2024/06/26 15:10:50.000   50.276574446   18.917946898   344.4890   6   7   0.0818   0.1004   0.2037   0.0506  -0.1120  -0.0486   0.00    0.0
2024/06/26 15:10:51.000   50.276574494   18.917947033   344.4834   6   7   0.0818   0.1004   0.2037   0.0506  -0.1120  -0.0486   0.00    0.0
2024/06/26 15:10:52.000   50.276574478   18.917946963   344.4860   6   7   0.0818   0.1004   0.2037   0.0506  -0.1120  -0.0486   0.00    0.0
2024/06/26 15:10:53.000   50.276574450   18.917946920   344.4977   6   7   0.0818   0.1004   0.2037   0.0506  -0.1120  -0.0486   0.00    0.0
2024/06/26 15:10:54.000   50.276574500   18.917946961   344.4878   6   7   0.0818   0.1004   0.2037   0.0506  -0.1120  -0.0486   0.00    0.0
2024/06/26 15:10:55.000   50.276574431   18.917946942   344.4884   6   7   0.0818   0.1004   0.2037   0.0506  -0.1120  -0.0486   0.00    0.0
2024/06/26 15:10:56.000   50.276574433   18.917946933   344.4901   6   6   0.0818   0.1004   0.2037   0.0506  -0.1120  -0.0486   0.00    0.0
2024/06/26 15:10:57.000   50.276574444   18.917946925   344.4902   6   7   0.0818   0.1004   0.2037   0.0506  -0.1120  -0.0486   0.00    0.0
2024/06/26 15:10:58.000   50.276574403   18.917946915   344.4857   6   7   0.0818   0.1004   0.2037   0.0506  -0.1120  -0.0486   0.00    0.0
2024/06/26 15:10:59.000   50.276574412   18.917946901   344.4959   6   7   0.0818   0.1004   0.2037   0.0506  -0.1120  -0.0486   0.00    0.0
2024/06/26 15:11:00.000   50.276574410   18.917946940   344.4774   6   7   0.0818   0.1004   0.2037   0.0506  -0.1120  -0.0486   0.00    0.0
2024/06/26 15:11:01.000   50.276574409   18.917946864   344.4895   6   6   0.0819   0.1004   0.2037   0.0506  -0.1120  -0.0486   0.00    0.0
2024/06/26 15:11:02.000   50.276574437   18.917946955   344.4806   6   7   0.0818   0.1004   0.2037   0.0506  -0.1120  -0.0486   0.00    0.0
2024/06/26 15:11:03.000   50.276574412   18.917946918   344.4802   6   7   0.0818   0.1004   0.2037   0.0506  -0.1120  -0.0486   0.00    0.0
2024/06/26 15:11:04.000   50.276574418   18.917946954   344.4907   6   7   0.0818   0.1004   0.2037   0.0506  -0.1120  -0.0486   0.00    0.0
2024/06/26 15:11:05.000   50.276574447   18.917946912   344.4884   6   7   0.0818   0.1004   0.2037   0.0506  -0.1120  -0.0486   0.00    0.0
2024/06/26 15:11:06.000   50.276574463   18.917946958   344.4869   6   7   0.0818   0.1004   0.2037   0.0506  -0.1120  -0.0486   0.00    0.0
2024/06/26 15:11:07.000   50.276574433   18.917946899   344.4941   6   7   0.0818   0.1004   0.2037   0.0506  -0.1120  -0.0486   0.00    0.0
2024/06/26 15:11:08.000   50.276574423   18.917946897   344.4844   6   6   0.0819   0.1004   0.2037   0.0506  -0.1120  -0.0486   0.00    0.0
2024/06/26 15:11:09.000   50.276574399   18.917946913   344.4820   6   6   0.0819   0.1004   0.2037   0.0506  -0.1120  -0.0486   0.00    0.0
2024/06/26 15:11:10.000   50.276574403   18.917946901   344.4852   6   6   0.0819   0.1004   0.2037   0.0506  -0.1120  -0.0486   0.00    0.0
2024/06/26 15:11:11.000   50.276574372   18.917946814   344.4791   6   6   0.0819   0.1004   0.2037   0.0506  -0.1120  -0.0486   0.00    0.0
2024/06/26 15:11:12.000   50.276574382   18.917946901   344.4695   6   6   0.0819   0.1004   0.2037   0.0507  -0.1120  -0.0486   0.00    0.0
2024/06/26 15:11:13.000   50.276574398   18.917946895   344.4782   6   7   0.0819   0.1004   0.2037   0.0506  -0.1120  -0.0486   0.00    0.0
2024/06/26 15:11:14.000   50.276574398   18.917946874   344.4813   6   7   0.0819   0.1004   0.2037   0.0506  -0.1120  -0.0486   0.00    0.0
2024/06/26 15:11:15.000   50.276574376   18.917946848   344.4783   6   6   0.0819   0.1004   0.2037   0.0507  -0.1120  -0.0486   0.00    0.0
2024/06/26 15:11:16.000   50.276574335   18.917946840   344.4790   6   6   0.0819   0.1004   0.2037   0.0506  -0.1120  -0.0486   0.00    0.0
2024/06/26 15:11:17.000   50.276574346   18.917946812   344.4815   6   6   0.0819   0.1004   0.2037   0.0507  -0.1120  -0.0486   0.00    0.0
2024/06/26 15:11:18.000   50.276574398   18.917946866   344.4902   6   7   0.0819   0.1004   0.2037   0.0506  -0.1120  -0.0486   0.00    0.0
2024/06/26 15:11:19.000   50.276574424   18.917946880   344.4824   6   7   0.0819   0.1004   0.2037   0.0506  -0.1120  -0.0486   0.00    0.0
2024/06/26 15:11:20.000   50.276574373   18.917946917   344.4774   6   6   0.0819   0.1004   0.2037   0.0507  -0.1120  -0.0486   0.00    0.0
2024/06/26 15:11:21.000   50.276574387   18.917946924   344.4751   6   7   0.0819   0.1004   0.2037   0.0506  -0.1120  -0.0486   0.00    0.0
2024/06/26 15:11:22.000   50.276574403   18.917946910   344.4722   6   7   0.0819   0.1004   0.2037   0.0506  -0.1120  -0.0486   0.00    0.0
2024/06/26 15:11:23.000   50.276574402   18.917946912   344.4789   6   6   0.0819   0.1004   0.2037   0.0506  -0.1120  -0.0486   0.00    0.0
2024/06/26 15:11:24.000   50.276574366   18.917946864   344.4714   6   6   0.0819   0.1004   0.2037   0.0506  -0.1120  -0.0486   0.00    0.0
2024/06/26 15:11:25.000   50.276574364   18.917946879   344.4649   6   7   0.0819   0.1004   0.2037   0.0506  -0.1120  -0.0486   0.00    0.0
2024/06/26 15:11:26.000   50.276574374   18.917946925   344.4730   6   6   0.0819   0.1004   0.2037   0.0506  -0.1120  -0.0486   0.00    0.0
2024/06/26 15:11:27.000   50.276574332   18.917946864   344.4699   6   7   0.0819   0.1004   0.2037   0.0506  -0.1120  -0.0486   0.00    0.0
2024/06/26 15:11:28.000   50.276574336   18.917946861   344.4701   6   7   0.0819   0.1004   0.2037   0.0506  -0.1120  -0.0486   0.00    0.0
2024/06/26 15:11:29.000   50.276574365   18.917946832   344.4801   6   7   0.0819   0.1004   0.2037   0.0506  -0.1120  -0.0486   0.00    0.0
2024/06/26 15:11:30.000   50.276574405   18.917946905   344.4738   6   6   0.0819   0.1004   0.2037   0.0506  -0.1120  -0.0486   0.00    0.0
2024/06/26 15:11:31.000   50.276574340   18.917946825   344.4715   6   7   0.0819   0.1004   0.2037   0.0506  -0.1120  -0.0486   0.00    0.0
2024/06/26 15:11:32.000   50.276574399   18.917946881   344.4762   6   7   0.0819   0.1004   0.2037   0.0506  -0.1120  -0.0486   0.00    0.0
2024/06/26 15:11:33.000   50.276574331   18.917946773   344.4789   6   7   0.0819   0.1004   0.2037   0.0506  -0.1120  -0.0486   0.00    0.0
2024/06/26 15:11:34.000   50.276574318   18.917946779   344.4738   6   7   0.0819   0.1004   0.2037   0.0506  -0.1120  -0.0486   0.00    0.0
2024/06/26 15:11:35.000   50.276574342   18.917946796   344.4816   6   7   0.0819   0.1004   0.2037   0.0506  -0.1120  -0.0486   0.00    0.0
2024/06/26 15:11:36.000   50.276574376   18.917946833   344.4829   6   7   0.0819   0.1004   0.2037   0.0506  -0.1120  -0.0486   0.00    0.0
2024/06/26 15:11:37.000   50.276574350   18.917946792   344.4838   6   7   0.0819   0.1004   0.2037   0.0506  -0.1120  -0.0486   0.00    0.0
2024/06/26 15:11:38.000   50.276574343   18.917946800   344.4812   6   7   0.0819   0.1004   0.2037   0.0506  -0.1120  -0.0486   0.00    0.0
2024/06/26 15:11:39.000   50.276574365   18.917946824   344.4881   6   7   0.0819   0.1004   0.2037   0.0506  -0.1120  -0.0486   0.00    0.0
2024/06/26 15:11:40.000   50.276574304   18.917946729   344.4854   6   6   0.0819   0.1004   0.2037   0.0507  -0.1120  -0.0486   0.00    0.0
2024/06/26 15:11:41.000   50.276574340   18.917946758   344.4838   6   7   0.0819   0.1004   0.2037   0.0506  -0.1120  -0.0486   0.00    0.0
2024/06/26 15:11:42.000   50.276574328   18.917946743   344.4879   6   7   0.0819   0.1004   0.2037   0.0506  -0.1120  -0.0486   0.00    0.0
2024/06/26 15:11:43.000   50.276574358   18.917946763   344.4821   6   7   0.0819   0.1004   0.2037   0.0506  -0.1120  -0.0486   0.00    0.0
2024/06/26 15:11:44.000   50.276574383   18.917946792   344.4812   6   7   0.0819   0.1004   0.2037   0.0506  -0.1120  -0.0486   0.00    0.0
2024/06/26 15:11:45.000   50.276574327   18.917946784   344.4743   6   7   0.0819   0.1004   0.2037   0.0506  -0.1120  -0.0486   0.00    0.0
2024/06/26 15:11:46.000   50.276574364   18.917946784   344.4743   6   7   0.0819   0.1004   0.2037   0.0506  -0.1120  -0.0486   0.00    0.0
2024/06/26 15:11:47.000   50.276574377   18.917946810   344.4747   6   7   0.0819   0.1004   0.2037   0.0506  -0.1120  -0.0486   0.00    0.0
2024/06/26 15:11:48.000   50.276574343   18.917946774   344.4689   6   7   0.0819   0.1004   0.2037   0.0506  -0.1120  -0.0486   0.00    0.0
2024/06/26 15:11:49.000   50.276574365   18.917946852   344.4710   6   7   0.0819   0.1004   0.2037   0.0506  -0.1120  -0.0486   0.00    0.0
2024/06/26 15:11:50.000   50.276574391   18.917946858   344.4650   6   7   0.0819   0.1004   0.2037   0.0506  -0.1120  -0.0486   0.00    0.0
2024/06/26 15:11:51.000   50.276574395   18.917946861   344.4644   6   7   0.0819   0.1004   0.2037   0.0506  -0.1120  -0.0486   0.00    0.0
2024/06/26 15:11:52.000   50.276574404   18.917946846   344.4697   6   7   0.0819   0.1004   0.2037   0.0506  -0.1120  -0.0486   0.00    0.0
2024/06/26 15:11:53.000   50.276574390   18.917946819   344.4738   6   7   0.0819   0.1004   0.2037   0.0506  -0.1120  -0.0486   0.00    0.0
2024/06/26 15:11:54.000   50.276574394   18.917946845   344.4691   6   7   0.0819   0.1004   0.2037   0.0506  -0.1120  -0.0486   0.00    0.0
2024/06/26 15:11:55.000   50.276574392   18.917946856   344.4696   6   7   0.0819   0.1004   0.2037   0.0506  -0.1120  -0.0486   0.00    0.0
2024/06/26 15:11:56.000   50.276574407   18.917946868   344.4662   6   6   0.0819   0.1004   0.2037   0.0506  -0.1120  -0.0486   0.00    0.0
2024/06/26 15:11:57.000   50.276574290   18.917946668   344.4751   6   6   0.0819   0.1004   0.2037   0.0506  -0.1120  -0.0486   0.00    0.0
2024/06/26 15:11:58.000   50.276574357   18.917946720   344.4723   6   6   0.0819   0.1004   0.2037   0.0506  -0.1120  -0.0486   0.00    0.0
2024/06/26 15:11:59.000   50.276574337   18.917946703   344.4731   6   5   0.0819   0.1004   0.2037   0.0506  -0.1120  -0.0486   0.00    0.0
2024/06/26 15:12:00.000   50.276574312   18.917946680   344.4791   6   5   0.0819   0.1004   0.2037   0.0506  -0.1120  -0.0486   0.00    0.0
2024/06/26 15:12:01.000   50.276574341   18.917946730   344.4735   6   5   0.0819   0.1004   0.2037   0.0506  -0.1120  -0.0486   0.00    0.0
2024/06/26 15:12:02.000   50.276574345   18.917946795   344.4661   6   7   0.0819   0.1004   0.2037   0.0506  -0.1120  -0.0486   0.00    0.0
2024/06/26 15:12:03.000   50.276574346   18.917946810   344.4649   6   7   0.0819   0.1004   0.2037   0.0506  -0.1120  -0.0486   0.00    0.0
2024/06/26 15:12:04.000   50.276574323   18.917946705   344.4718   6   5   0.0819   0.1004   0.2037   0.0506  -0.1120  -0.0485   0.00    0.0
2024/06/26 15:12:05.000   50.276574327   18.917946732   344.4694   6   6   0.0819   0.1004   0.2037   0.0507  -0.1120  -0.0486   0.00    0.0
2024/06/26 15:12:06.000   50.276574322   18.917946733   344.4640   6   6   0.0819   0.1004   0.2037   0.0507  -0.1120  -0.0486   0.00    0.0
2024/06/26 15:12:07.000   50.276574339   18.917946767   344.4669   6   6   0.0819   0.1004   0.2037   0.0507  -0.1120  -0.0486   0.00    0.0
2024/06/26 15:12:08.000   50.276574337   18.917946794   344.4654   6   7   0.0819   0.1004   0.2037   0.0506  -0.1120  -0.0486   0.00    0.0
2024/06/26 15:12:09.000   50.276574289   18.917946734   344.4647   6   7   0.0819   0.1004   0.2037   0.0506  -0.1120  -0.0486   0.00    0.0
2024/06/26 15:12:10.000   50.276574330   18.917946748   344.4744   6   6   0.0819   0.1004   0.2037   0.0507  -0.1120  -0.0486   0.00    0.0
2024/06/26 15:12:11.000   50.276574319   18.917946734   344.4731   6   6   0.0819   0.1004   0.2037   0.0507  -0.1120  -0.0486   0.00    0.0
2024/06/26 15:12:12.000   50.276574242   18.917946688   344.4668   6   6   0.0819   0.1004   0.2037   0.0507  -0.1120  -0.0486   0.00    0.0
2024/06/26 15:12:13.000   50.276574243   18.917946694   344.4598   6   7   0.0819   0.1004   0.2037   0.0507  -0.1120  -0.0486   0.00    0.0
2024/06/26 15:12:14.000   50.276574230   18.917946663   344.4630   6   7   0.0819   0.1004   0.2037   0.0507  -0.1120  -0.0486   0.00    0.0
2024/06/26 15:12:15.000   50.276574221   18.917946688   344.4626   6   7   0.0819   0.1004   0.2037   0.0507  -0.1120  -0.0486   0.00    0.0
2024/06/26 15:12:16.000   50.276574264   18.917946677   344.4713   6   7   0.0819   0.1004   0.2037   0.0507  -0.1120  -0.0486   0.00    0.0
2024/06/26 15:12:17.000   50.276574257   18.917946663   344.4715   6   7   0.0819   0.1004   0.2037   0.0507  -0.1120  -0.0486   0.00    0.0
2024/06/26 15:12:18.000   50.276574235   18.917946621   344.4782   6   7   0.0819   0.1004   0.2037   0.0507  -0.1120  -0.0486   0.00    0.0
2024/06/26 15:12:19.000   50.276574277   18.917946686   344.4680   6   7   0.0819   0.1004   0.2037   0.0507  -0.1120  -0.0486   0.00    0.0
2024/06/26 15:12:20.000   50.276574251   18.917946674   344.4617   6   7   0.0819   0.1004   0.2037   0.0507  -0.1120  -0.0486   0.00    0.0
2024/06/26 15:12:21.000   50.276574209   18.917946623   344.4586   6   7   0.0819   0.1004   0.2037   0.0507  -0.1120  -0.0486   0.00    0.0
2024/06/26 15:12:22.000   50.276574261   18.917946679   344.4646   6   7   0.0819   0.1004   0.2037   0.0506  -0.1120  -0.0486   0.00    0.0
2024/06/26 15:12:23.000   50.276574232   18.917946620   344.4656   6   7   0.0819   0.1004   0.2037   0.0506  -0.1120  -0.0486   0.00    0.0
2024/06/26 15:12:24.000   50.276574228   18.917946640   344.4644   6   6   0.0819   0.1004   0.2037   0.0507  -0.1120  -0.0486   0.00    0.0
2024/06/26 15:12:25.000   50.276574216   18.917946602   344.4638   6   6   0.0819   0.1004   0.2037   0.0507  -0.1120  -0.0486   0.00    0.0
2024/06/26 15:12:26.000   50.276574179   18.917946542   344.4726   6   7   0.0819   0.1004   0.2037   0.0507  -0.1120  -0.0486   0.00    0.0
2024/06/26 15:12:27.000   50.276574192   18.917946544   344.4697   6   7   0.0819   0.1004   0.2037   0.0507  -0.1120  -0.0486   0.00    0.0
2024/06/26 15:12:28.000   50.276574182   18.917946549   344.4706   6   7   0.0819   0.1004   0.2037   0.0507  -0.1120  -0.0486   0.00    0.0
2024/06/26 15:12:29.000   50.276574163   18.917946477   344.4647   6   6   0.0819   0.1004   0.2037   0.0507  -0.1120  -0.0486   0.00    0.0
2024/06/26 15:12:30.000   50.276574202   18.917946540   344.4725   6   7   0.0819   0.1004   0.2037   0.0507  -0.1120  -0.0486   0.00    0.0
2024/06/26 15:12:31.000   50.276574180   18.917946539   344.4731   6   7   0.0819   0.1004   0.2037   0.0507  -0.1120  -0.0486   0.00    0.0
2024/06/26 15:12:32.000   50.276574155   18.917946481   344.4665   6   6   0.0819   0.1004   0.2037   0.0507  -0.1120  -0.0486   0.00    0.0
2024/06/26 15:12:33.000   50.276574145   18.917946434   344.4683   6   7   0.0819   0.1004   0.2037   0.0507  -0.1120  -0.0486   0.00    0.0
2024/06/26 15:12:34.000   50.276574098   18.917946434   344.4591   6   6   0.0819   0.1004   0.2037   0.0507  -0.1120  -0.0485   0.00    0.0
2024/06/26 15:12:35.000   50.276574147   18.917946463   344.4673   6   7   0.0819   0.1004   0.2037   0.0507  -0.1120  -0.0486   0.00    0.0
2024/06/26 15:12:36.000   50.276574129   18.917946462   344.4556   6   7   0.0819   0.1004   0.2037   0.0507  -0.1120  -0.0486   0.00    0.0
2024/06/26 15:12:37.000   50.276574155   18.917946479   344.4572   6   7   0.0819   0.1004   0.2037   0.0507  -0.1120  -0.0486   0.00    0.0
2024/06/26 15:12:38.000   50.276574172   18.917946450   344.4607   6   7   0.0819   0.1004   0.2037   0.0507  -0.1120  -0.0486   0.00    0.0
