% program   : RTKLIB ver.demo5 b34j
% inp file  : u-blox9.obs
% inp file  : u-blox9.nav
% obs start : 2024/06/26 15:05:42.0 UTC (week2320 313560.0s)
% obs end   : 2024/06/26 15:22:42.0 UTC (week2320 314580.0s)
% pos mode  : PPP Static
% solution  : Forward
% elev mask : 10.0 deg
% dynamics  : off
% tidecorr  : on
% tropo opt : Saastamoinen
% ephemeris : Broadcast
% navi sys  : GPS Galileo
% antenna1  :                       ( 0.0000  0.0000  0.0000)
%
% (x/y/z-ecef=WGS84,Q=1:fix,2:float,3:sbas,4:dgps,5:single,6:ppp,ns=# of satellites)
%  UTC                       x-ecef(m)      y-ecef(m)      z-ecef(m)   Q  ns   sdx(m)   sdy(m)   sdz(m)  sdxy(m)  sdyz(m)  sdzx(m) age(s)  ratio
2024/06/26 15:05:42.000   3863838.9511   1324243.0275   4882761.9976   6  12   2.8683   1.9526   4.6763   0.6384  -0.7910   2.9102   0.00    0.0
2024/06/26 15:05:43.000   3863838.7036   1324243.2616   4882762.3546   6  12   2.0323   1.3821   3.3144   0.4521  -0.5609   2.0637   0.00    0.0
2024/06/26 15:05:44.000   3863838.4931   1324243.2690   4882762.2515   6  12   1.6605   1.1289   2.7083   0.3694  -0.4584   1.6865   0.00    0.0
2024/06/26 15:05:45.000   3863838.4264   1324243.2137   4882761.9398   6  12   1.4385   0.9779   2.3464   0.3200  -0.3970   1.4612   0.00    0.0
2024/06/26 15:05:46.000   3863838.2703   1324243.1977   4882762.0014   6  12   1.2869   0.8747   2.0992   0.2863  -0.3551   1.3073   0.00    0.0
2024/06/26 15:05:47.000   3863838.0451   1324243.0912   4882762.0007   6  12   1.1749   0.7986   1.9166   0.2614  -0.3242   1.1936   0.00    0.0
2024/06/26 15:05:48.000   3863837.8180   1324242.9560   4882762.0351   6  12   1.0879   0.7394   1.7746   0.2420  -0.3001   1.1052   0.00    0.0
2024/06/26 15:05:49.000   3863837.5640   1324242.8271   4882762.0096   6  12   1.0177   0.6917   1.6601   0.2264  -0.2807   1.0339   0.00    0.0
2024/06/26 15:05:50.000   3863837.3787   1324242.6976   4882762.0855   6  12   0.9595   0.6521   1.5653   0.2135  -0.2647   0.9748   0.00    0.0
2024/06/26 15:05:51.000   3863837.2408   1324242.5968   4882762.1597   6  12   0.9103   0.6187   1.4850   0.2026  -0.2511   0.9248   0.00    0.0
2024/06/26 15:05:52.000   3863837.0027   1324242.4711   4882762.0938   6  12   0.8680   0.5899   1.4160   0.1932  -0.2394   0.8818   0.00    0.0
2024/06/26 15:05:53.000   3863836.7698   1324242.3642   4882761.9639   6  12   0.8310   0.5648   1.3557   0.1850  -0.2292   0.8443   0.00    0.0
2024/06/26 15:05:54.000   3863836.5650   1324242.2565   4882761.8533   6  12   0.7985   0.5427   1.3025   0.1777  -0.2202   0.8112   0.00    0.0
2024/06/26 15:05:55.000   3863836.7201   1324242.3574   4882761.9116   6  11   0.7739   0.5246   1.2565   0.1810  -0.2064   0.7847   0.00    0.0
2024/06/26 15:05:56.000   3863836.8521   1324242.4352   4882761.9928   6  11   0.7515   0.5083   1.2150   0.1830  -0.1943   0.7607   0.00    0.0
2024/06/26 15:05:57.000   3863836.9858   1324242.4944   4882762.1142   6  11   0.7310   0.4934   1.1775   0.1841  -0.1835   0.7389   0.00    0.0
2024/06/26 15:05:58.000   3863837.1011   1324242.5130   4882762.2046   6  11   0.7122   0.4798   1.1432   0.1844  -0.1738   0.7189   0.00    0.0
2024/06/26 15:05:59.000   3863837.2254   1324242.5308   4882762.2828   6  11   0.6947   0.4673   1.1118   0.1843  -0.1651   0.7004   0.00    0.0
2024/06/26 15:06:00.000   3863837.1058   1324242.4236   4882762.1632   6  12   0.6753   0.4545   1.0818   0.1776  -0.1620   0.6811   0.00    0.0
2024/06/26 15:06:01.000   3863837.0493   1324242.3625   4882762.0979   6  12   0.6574   0.4427   1.0542   0.1717  -0.1590   0.6633   0.00    0.0
2024/06/26 15:06:02.000   3863837.0580   1324242.3479   4882762.1007   6  12   0.6409   0.4318   1.0286   0.1663  -0.1561   0.6469   0.00    0.0
2024/06/26 15:06:03.000   3863837.0955   1324242.3435   4882762.1466   6  12   0.6256   0.4216   1.0047   0.1613  -0.1534   0.6316   0.00    0.0
2024/06/26 15:06:04.000   3863837.1431   1324242.3450   4882762.2067   6  12   0.6113   0.4122   0.9825   0.1567  -0.1507   0.6173   0.00    0.0
2024/06/26 15:06:05.000   3863837.1833   1324242.3653   4882762.2440   6  12   0.5980   0.4033   0.9616   0.1525  -0.1482   0.6040   0.00    0.0
2024/06/26 15:06:06.000   3863837.2375   1324242.3854   4882762.3235   6  12   0.5854   0.3950   0.9421   0.1486  -0.1458   0.5915   0.00    0.0
2024/06/26 15:06:07.000   3863837.2867   1324242.4120   4882762.3927   6  12   0.5737   0.3872   0.9237   0.1449  -0.1435   0.5797   0.00    0.0
2024/06/26 15:06:08.000   3863837.3647   1324242.4599   4882762.5278   6  12   0.5626   0.3798   0.9063   0.1416  -0.1413   0.5686   0.00    0.0
2024/06/26 15:06:09.000   3863837.4523   1324242.5170   4882762.7125   6  12   0.5522   0.3729   0.8898   0.1384  -0.1392   0.5582   0.00    0.0
2024/06/26 15:06:10.000   3863837.5656   1324242.5836   4882762.9341   6  12   0.5423   0.3663   0.8743   0.1354  -0.1371   0.5483   0.00    0.0
2024/06/26 15:06:11.000   3863837.7231   1324242.6688   4882763.1942   6  12   0.5329   0.3600   0.8595   0.1326  -0.1352   0.5388   0.00    0.0
2024/06/26 15:06:12.000   3863837.8881   1324242.7561   4882763.4508   6  12   0.5240   0.3541   0.8454   0.1300  -0.1333   0.5299   0.00    0.0
2024/06/26 15:06:13.000   3863838.0375   1324242.8551   4882763.6688   6  12   0.5155   0.3485   0.8320   0.1275  -0.1315   0.5214   0.00    0.0
2024/06/26 15:06:14.000   3863838.1852   1324242.9472   4882763.8779   6  12   0.5074   0.3431   0.8192   0.1251  -0.1297   0.5133   0.00    0.0
2024/06/26 15:06:15.000   3863838.2383   1324242.9925   4882764.0246   6  11   0.5010   0.3384   0.8074   0.1255  -0.1263   0.5064   0.00    0.0
2024/06/26 15:06:16.000   3863838.2944   1324243.0356   4882764.1761   6  11   0.4948   0.3339   0.7961   0.1257  -0.1231   0.4998   0.00    0.0
2024/06/26 15:06:17.000   3863838.3481   1324243.0741   4882764.3103   6  11   0.4888   0.3296   0.7852   0.1258  -0.1201   0.4934   0.00    0.0
2024/06/26 15:06:18.000   3863838.4045   1324243.1107   4882764.4463   6  11   0.4831   0.3255   0.7748   0.1258  -0.1171   0.4873   0.00    0.0
2024/06/26 15:06:19.000   3863838.4625   1324243.1492   4882764.5809   6  11   0.4775   0.3215   0.7647   0.1258  -0.1143   0.4814   0.00    0.0
2024/06/26 15:06:20.000   3863838.5198   1324243.1969   4882764.6991   6  11   0.4721   0.3176   0.7551   0.1257  -0.1117   0.4758   0.00    0.0
2024/06/26 15:06:21.000   3863838.5760   1324243.2465   4882764.8066   6  11   0.4670   0.3139   0.7458   0.1256  -0.1091   0.4703   0.00    0.0
2024/06/26 15:06:22.000   3863838.6272   1324243.2892   4882764.9016   6  11   0.4619   0.3103   0.7369   0.1254  -0.1067   0.4650   0.00    0.0
2024/06/26 15:06:23.000   3863838.6741   1324243.3309   4882765.0016   6  11   0.4571   0.3069   0.7282   0.1252  -0.1044   0.4599   0.00    0.0
2024/06/26 15:06:24.000   3863838.7198   1324243.3733   4882765.1021   6  11   0.4524   0.3036   0.7199   0.1249  -0.1022   0.4549   0.00    0.0
2024/06/26 15:06:25.000   3863838.7670   1324243.4131   4882765.2033   6  11   0.4479   0.3003   0.7118   0.1246  -0.1000   0.4502   0.00    0.0
2024/06/26 15:06:26.000   3863838.8120   1324243.4517   4882765.3135   6  11   0.4434   0.2972   0.7040   0.1243  -0.0980   0.4455   0.00    0.0
2024/06/26 15:06:27.000   3863838.8494   1324243.4874   4882765.4107   6  11   0.4392   0.2942   0.6965   0.1240  -0.0960   0.4410   0.00    0.0
2024/06/26 15:06:28.000   3863838.8864   1324243.5156   4882765.5067   6  11   0.4350   0.2912   0.6892   0.1236  -0.0941   0.4367   0.00    0.0
2024/06/26 15:06:29.000   3863838.9299   1324243.5411   4882765.6038   6  11   0.4310   0.2884   0.6821   0.1232  -0.0923   0.4324   0.00    0.0
2024/06/26 15:06:30.000   3863838.9715   1324243.5684   4882765.6982   6  11   0.4270   0.2856   0.6752   0.1228  -0.0905   0.4283   0.00    0.0
2024/06/26 15:06:31.000   3863839.0139   1324243.5943   4882765.7940   6  11   0.4232   0.2829   0.6686   0.1224  -0.0888   0.4243   0.00    0.0
2024/06/26 15:06:32.000   3863839.0550   1324243.6207   4882765.8953   6  11   0.4195   0.2803   0.6621   0.1220  -0.0872   0.4205   0.00    0.0
2024/06/26 15:06:33.000   3863839.0951   1324243.6456   4882766.0024   6  11   0.4159   0.2778   0.6558   0.1216  -0.0856   0.4167   0.00    0.0
2024/06/26 15:06:34.000   3863839.1327   1324243.6655   4882766.1042   6  11   0.4123   0.2753   0.6497   0.1212  -0.0841   0.4130   0.00    0.0
2024/06/26 15:06:35.000   3863839.1669   1324243.6840   4882766.1927   6  11   0.4089   0.2729   0.6438   0.1207  -0.0826   0.4094   0.00    0.0
2024/06/26 15:06:36.000   3863839.2017   1324243.7014   4882766.2778   6  11   0.4055   0.2706   0.6380   0.1203  -0.0812   0.4059   0.00    0.0
2024/06/26 15:06:37.000   3863839.2326   1324243.7148   4882766.3619   6  11   0.4023   0.2683   0.6324   0.1199  -0.0798   0.4025   0.00    0.0
2024/06/26 15:06:38.000   3863839.2607   1324243.7267   4882766.4565   6  11   0.3991   0.2661   0.6269   0.1194  -0.0785   0.3992   0.00    0.0
2024/06/26 15:06:39.000   3863839.2965   1324243.7410   4882766.5679   6  11   0.3959   0.2639   0.6216   0.1189  -0.0772   0.3960   0.00    0.0
2024/06/26 15:06:40.000   3863839.3336   1324243.7534   4882766.6883   6  11   0.3929   0.2618   0.6164   0.1185  -0.0759   0.3928   0.00    0.0
2024/06/26 15:06:41.000   3863839.3657   1324243.7626   4882766.8154   6  11   0.3899   0.2597   0.6113   0.1180  -0.0747   0.3897   0.00    0.0
2024/06/26 15:06:42.000   3863839.3975   1324243.7751   4882766.9375   6  11   0.3870   0.2577   0.6063   0.1176  -0.0735   0.3867   0.00    0.0
2024/06/26 15:06:43.000   3863839.4282   1324243.7886   4882767.0632   6  11   0.3842   0.2557   0.6015   0.1171  -0.0724   0.3838   0.00    0.0
2024/06/26 15:06:44.000   3863839.4552   1324243.7990   4882767.1835   6  11   0.3814   0.2538   0.5968   0.1167  -0.0713   0.3809   0.00    0.0
2024/06/26 15:06:45.000   3863839.4780   1324243.8065   4882767.3078   6  11   0.3787   0.2519   0.5922   0.1162  -0.0702   0.3781   0.00    0.0
2024/06/26 15:06:46.000   3863839.5059   1324243.8142   4882767.4387   6  11   0.3760   0.2501   0.5876   0.1158  -0.0692   0.3754   0.00    0.0
2024/06/26 15:06:47.000   3863839.5359   1324243.8187   4882767.5647   6  11   0.3734   0.2483   0.5832   0.1153  -0.0682   0.3727   0.00    0.0
2024/06/26 15:06:48.000   3863839.5646   1324243.8261   4882767.6847   6  11   0.3709   0.2465   0.5789   0.1148  -0.0672   0.3700   0.00    0.0
2024/06/26 15:06:49.000   3863839.5960   1324243.8355   4882767.8114   6  11   0.3684   0.2448   0.5747   0.1144  -0.0662   0.3674   0.00    0.0
2024/06/26 15:06:50.000   3863839.6277   1324243.8461   4882767.9545   6  11   0.3659   0.2431   0.5706   0.1139  -0.0653   0.3649   0.00    0.0
2024/06/26 15:06:51.000   3863839.6584   1324243.8574   4882768.0948   6  11   0.3635   0.2415   0.5666   0.1135  -0.0643   0.3625   0.00    0.0
2024/06/26 15:06:52.000   3863839.6890   1324243.8666   4882768.2291   6  11   0.3611   0.2398   0.5626   0.1131  -0.0635   0.3600   0.00    0.0
2024/06/26 15:06:53.000   3863839.7177   1324243.8714   4882768.3543   6  11   0.3588   0.2382   0.5587   0.1126  -0.0626   0.3577   0.00    0.0
2024/06/26 15:06:54.000   3863839.7439   1324243.8714   4882768.4699   6  11   0.3566   0.2367   0.5549   0.1122  -0.0617   0.3553   0.00    0.0
2024/06/26 15:06:55.000   3863839.7681   1324243.8714   4882768.5733   6  11   0.3544   0.2352   0.5512   0.1117  -0.0609   0.3530   0.00    0.0
2024/06/26 15:06:56.000   3863839.7957   1324243.8709   4882768.6778   6  11   0.3522   0.2337   0.5476   0.1113  -0.0601   0.3508   0.00    0.0
2024/06/26 15:06:57.000   3863839.8174   1324243.8700   4882768.7811   6  11   0.3500   0.2322   0.5440   0.1109  -0.0593   0.3486   0.00    0.0
2024/06/26 15:06:58.000   3863839.8418   1324243.8706   4882768.8816   6  11   0.3479   0.2308   0.5405   0.1104  -0.0586   0.3464   0.00    0.0
2024/06/26 15:06:59.000   3863839.8613   1324243.8749   4882768.9822   6  11   0.3459   0.2294   0.5371   0.1100  -0.0578   0.3443   0.00    0.0
2024/06/26 15:07:00.000   3863839.8773   1324243.8834   4882769.0817   6  11   0.3438   0.2280   0.5337   0.1096  -0.0571   0.3422   0.00    0.0
2024/06/26 15:07:01.000   3863839.8936   1324243.8917   4882769.1806   6  11   0.3418   0.2266   0.5304   0.1092  -0.0564   0.3402   0.00    0.0
2024/06/26 15:07:02.000   3863839.9111   1324243.8971   4882769.2831   6  11   0.3399   0.2253   0.5271   0.1088  -0.0557   0.3382   0.00    0.0
2024/06/26 15:07:03.000   3863839.9299   1324243.9020   4882769.3809   6  11   0.3380   0.2240   0.5239   0.1084  -0.0550   0.3362   0.00    0.0
2024/06/26 15:07:04.000   3863839.9449   1324243.9032   4882769.4746   6  11   0.3361   0.2227   0.5208   0.1079  -0.0543   0.3343   0.00    0.0
2024/06/26 15:07:05.000   3863839.9606   1324243.9041   4882769.5647   6  11   0.3342   0.2214   0.5177   0.1075  -0.0537   0.3324   0.00    0.0
2024/06/26 15:07:06.000   3863839.9770   1324243.9045   4882769.6549   6  11   0.3324   0.2202   0.5147   0.1071  -0.0530   0.3305   0.00    0.0
2024/06/26 15:07:07.000   3863839.9927   1324243.9039   4882769.7421   6  11   0.3306   0.2189   0.5117   0.1067  -0.0524   0.3287   0.00    0.0
2024/06/26 15:07:08.000   3863840.0073   1324243.9055   4882769.8185   6  11   0.3288   0.2177   0.5088   0.1063  -0.0518   0.3268   0.00    0.0
2024/06/26 15:07:09.000   3863840.0211   1324243.9071   4882769.8861   6  11   0.3271   0.2165   0.5059   0.1060  -0.0512   0.3251   0.00    0.0
2024/06/26 15:07:10.000   3863840.0341   1324243.9077   4882769.9536   6  11   0.3253   0.2154   0.5031   0.1056  -0.0506   0.3233   0.00    0.0
2024/06/26 15:07:11.000   3863840.0468   1324243.9079   4882770.0187   6  11   0.3237   0.2142   0.5003   0.1052  -0.0501   0.3216   0.00    0.0
2024/06/26 15:07:12.000   3863840.0579   1324243.9070   4882770.0782   6  11   0.3220   0.2131   0.4976   0.1048  -0.0495   0.3199   0.00    0.0
2024/06/26 15:07:13.000   3863840.0714   1324243.9042   4882770.1400   6  11   0.3204   0.2120   0.4949   0.1044  -0.0489   0.3182   0.00    0.0
2024/06/26 15:07:14.000   3863840.0864   1324243.9016   4882770.1986   6  11   0.3187   0.2109   0.4923   0.1041  -0.0484   0.3166   0.00    0.0
2024/06/26 15:07:15.000   3863840.1010   1324243.8996   4882770.2566   6  11   0.3172   0.2098   0.4897   0.1037  -0.0479   0.3149   0.00    0.0
2024/06/26 15:07:16.000   3863840.1145   1324243.8978   4882770.3111   6  11   0.3156   0.2088   0.4871   0.1033  -0.0474   0.3134   0.00    0.0
2024/06/26 15:07:17.000   3863840.1257   1324243.8962   4882770.3587   6  11   0.3140   0.2077   0.4846   0.1029  -0.0468   0.3118   0.00    0.0
2024/06/26 15:07:18.000   3863840.1355   1324243.8908   4882770.4093   6  11   0.3125   0.2067   0.4821   0.1026  -0.0464   0.3102   0.00    0.0
2024/06/26 15:07:19.000   3863840.1464   1324243.8856   4882770.4579   6  11   0.3110   0.2057   0.4796   0.1022  -0.0459   0.3087   0.00    0.0
2024/06/26 15:07:20.000   3863840.1545   1324243.8817   4882770.5010   6  11   0.3096   0.2047   0.4772   0.1019  -0.0454   0.3072   0.00    0.0
2024/06/26 15:07:21.000   3863840.1603   1324243.8785   4882770.5359   6  11   0.3081   0.2037   0.4748   0.1015  -0.0449   0.3057   0.00    0.0
2024/06/26 15:07:22.000   3863840.1670   1324243.8750   4882770.5742   6  11   0.3067   0.2027   0.4725   0.1012  -0.0444   0.3043   0.00    0.0
2024/06/26 15:07:23.000   3863840.1762   1324243.8712   4882770.6157   6  11   0.3053   0.2018   0.4702   0.1008  -0.0440   0.3028   0.00    0.0
2024/06/26 15:07:24.000   3863840.1871   1324243.8663   4882770.6561   6  11   0.3039   0.2008   0.4679   0.1005  -0.0435   0.3014   0.00    0.0
2024/06/26 15:07:25.000   3863840.1982   1324243.8621   4882770.6926   6  11   0.3025   0.1999   0.4657   0.1002  -0.0431   0.3000   0.00    0.0
2024/06/26 15:07:26.000   3863840.2084   1324243.8577   4882770.7278   6  11   0.3011   0.1990   0.4635   0.0998  -0.0427   0.2986   0.00    0.0
2024/06/26 15:07:27.000   3863840.2212   1324243.8522   4882770.7646   6  11   0.2998   0.1981   0.4613   0.0995  -0.0423   0.2973   0.00    0.0
2024/06/26 15:07:28.000   3863840.2327   1324243.8454   4882770.8041   6  11   0.2985   0.1972   0.4591   0.0992  -0.0418   0.2959   0.00    0.0
2024/06/26 15:07:29.000   3863840.2420   1324243.8371   4882770.8422   6  11   0.2972   0.1963   0.4570   0.0988  -0.0414   0.2946   0.00    0.0
2024/06/26 15:07:30.000   3863840.2486   1324243.8278   4882770.8745   6  11   0.2959   0.1954   0.4549   0.0985  -0.0410   0.2933   0.00    0.0
2024/06/26 15:07:31.000   3863840.2541   1324243.8177   4882770.9022   6  11   0.2946   0.1946   0.4529   0.0982  -0.0406   0.2920   0.00    0.0
2024/06/26 15:07:32.000   3863840.2602   1324243.8071   4882770.9308   6  11   0.2933   0.1937   0.4508   0.0979  -0.0402   0.2907   0.00    0.0
2024/06/26 15:07:33.000   3863840.2630   1324243.7958   4882770.9524   6  11   0.2921   0.1929   0.4488   0.0975  -0.0399   0.2894   0.00    0.0
2024/06/26 15:07:34.000   3863840.2667   1324243.7828   4882770.9782   6  11   0.2909   0.1921   0.4468   0.0972  -0.0395   0.2882   0.00    0.0
2024/06/26 15:07:35.000   3863840.2709   1324243.7688   4882770.9989   6  11   0.2897   0.1913   0.4449   0.0969  -0.0391   0.2870   0.00    0.0
2024/06/26 15:07:36.000   3863840.2760   1324243.7524   4882771.0170   6  11   0.2885   0.1905   0.4430   0.0966  -0.0388   0.2858   0.00    0.0
2024/06/26 15:07:37.000   3863840.2810   1324243.7362   4882771.0332   6  11   0.2873   0.1897   0.4411   0.0963  -0.0384   0.2846   0.00    0.0
2024/06/26 15:07:38.000   3863840.2857   1324243.7192   4882771.0433   6  11   0.2861   0.1889   0.4392   0.0960  -0.0380   0.2834   0.00    0.0
2024/06/26 15:07:39.000   3863840.2908   1324243.7027   4882771.0457   6  11   0.2850   0.1881   0.4373   0.0957  -0.0377   0.2822   0.00    0.0
2024/06/26 15:07:40.000   3863840.2938   1324243.6852   4882771.0450   6  11   0.2839   0.1874   0.4355   0.0954  -0.0374   0.2811   0.00    0.0
2024/06/26 15:07:41.000   3863840.2987   1324243.6681   4882771.0432   6  11   0.2827   0.1866   0.4337   0.0951  -0.0370   0.2799   0.00    0.0
2024/06/26 15:07:42.000   3863840.3026   1324243.6501   4882771.0373   6  11   0.2816   0.1859   0.4319   0.0948  -0.0367   0.2788   0.00    0.0
2024/06/26 15:07:43.000   3863840.3485   1324243.6530   4882771.0578   6  12   0.2803   0.1850   0.4300   0.0941  -0.0371   0.2775   0.00    0.0
2024/06/26 15:07:44.000   3863840.3678   1324243.6421   4882771.0621   6  12   0.2789   0.1842   0.4282   0.0934  -0.0374   0.2762   0.00    0.0
2024/06/26 15:07:45.000   3863840.4226   1324243.6496   4882771.0948   6  12   0.2776   0.1834   0.4264   0.0928  -0.0378   0.2750   0.00    0.0
2024/06/26 15:07:46.000   3863840.4644   1324243.6512   4882771.1200   6  12   0.2763   0.1826   0.4246   0.0921  -0.0381   0.2737   0.00    0.0
2024/06/26 15:07:47.000   3863840.4893   1324243.6444   4882771.1337   6  12   0.2750   0.1818   0.4229   0.0915  -0.0384   0.2725   0.00    0.0
2024/06/26 15:07:48.000   3863840.5249   1324243.6454   4882771.1544   6  12   0.2737   0.1810   0.4211   0.0908  -0.0387   0.2713   0.00    0.0
2024/06/26 15:07:49.000   3863840.5497   1324243.6394   4882771.1656   6  12   0.2725   0.1802   0.4194   0.0902  -0.0389   0.2701   0.00    0.0
2024/06/26 15:07:50.000   3863840.5772   1324243.6342   4882771.1789   6  12   0.2712   0.1794   0.4177   0.0896  -0.0392   0.2689   0.00    0.0
2024/06/26 15:07:51.000   3863840.6173   1324243.6366   4882771.2023   6  12   0.2700   0.1787   0.4161   0.0890  -0.0394   0.2678   0.00    0.0
2024/06/26 15:07:52.000   3863840.6546   1324243.6393   4882771.2252   6  12   0.2688   0.1779   0.4144   0.0884  -0.0396   0.2666   0.00    0.0
2024/06/26 15:07:53.000   3863840.6957   1324243.6440   4882771.2471   6  12   0.2676   0.1772   0.4128   0.0878  -0.0399   0.2655   0.00    0.0
2024/06/26 15:07:54.000   3863840.7379   1324243.6493   4882771.2712   6  12   0.2665   0.1765   0.4112   0.0872  -0.0401   0.2644   0.00    0.0
2024/06/26 15:07:55.000   3863840.7763   1324243.6535   4882771.2957   6  12   0.2653   0.1758   0.4096   0.0867  -0.0403   0.2633   0.00    0.0
2024/06/26 15:07:56.000   3863840.8080   1324243.6554   4882771.3112   6  12   0.2642   0.1750   0.4080   0.0861  -0.0404   0.2622   0.00    0.0
2024/06/26 15:07:57.000   3863840.8281   1324243.6510   4882771.3171   6  12   0.2631   0.1743   0.4064   0.0856  -0.0406   0.2611   0.00    0.0
2024/06/26 15:07:58.000   3863840.8433   1324243.6449   4882771.3192   6  12   0.2619   0.1737   0.4049   0.0850  -0.0408   0.2600   0.00    0.0
2024/06/26 15:07:59.000   3863840.8609   1324243.6401   4882771.3195   6  12   0.2609   0.1730   0.4034   0.0845  -0.0409   0.2590   0.00    0.0
2024/06/26 15:08:00.000   3863840.8735   1324243.6330   4882771.3145   6  12   0.2598   0.1723   0.4019   0.0840  -0.0411   0.2580   0.00    0.0
2024/06/26 15:08:01.000   3863840.8855   1324243.6260   4882771.3072   6  12   0.2587   0.1716   0.4004   0.0835  -0.0412   0.2569   0.00    0.0
2024/06/26 15:08:02.000   3863840.8919   1324243.6172   4882771.2983   6  12   0.2576   0.1710   0.3989   0.0830  -0.0413   0.2559   0.00    0.0
2024/06/26 15:08:03.000   3863840.8988   1324243.6097   4882771.2967   6  12   0.2566   0.1703   0.3975   0.0825  -0.0415   0.2549   0.00    0.0
2024/06/26 15:08:04.000   3863840.8978   1324243.5989   4882771.2888   6  12   0.2556   0.1697   0.3960   0.0820  -0.0416   0.2539   0.00    0.0
2024/06/26 15:08:05.000   3863840.8967   1324243.5881   4882771.2812   6  12   0.2546   0.1690   0.3946   0.0815  -0.0417   0.2530   0.00    0.0
2024/06/26 15:08:06.000   3863840.8894   1324243.5730   4882771.2703   6  12   0.2536   0.1684   0.3932   0.0810  -0.0418   0.2520   0.00    0.0
2024/06/26 15:08:07.000   3863840.8827   1324243.5593   4882771.2631   6  12   0.2526   0.1678   0.3918   0.0806  -0.0419   0.2510   0.00    0.0
2024/06/26 15:08:08.000   3863840.8698   1324243.5442   4882771.2537   6  12   0.2516   0.1672   0.3904   0.0801  -0.0420   0.2501   0.00    0.0
2024/06/26 15:08:09.000   3863840.8586   1324243.5300   4882771.2458   6  12   0.2506   0.1666   0.3890   0.0797  -0.0421   0.2492   0.00    0.0
2024/06/26 15:08:10.000   3863840.8370   1324243.5123   4882771.2267   6  12   0.2497   0.1660   0.3877   0.0792  -0.0422   0.2482   0.00    0.0
2024/06/26 15:08:11.000   3863840.8123   1324243.4943   4882771.2036   6  12   0.2487   0.1654   0.3864   0.0788  -0.0422   0.2473   0.00    0.0
2024/06/26 15:08:12.000   3863840.7846   1324243.4763   4882771.1806   6  12   0.2478   0.1648   0.3850   0.0783  -0.0423   0.2464   0.00    0.0
2024/06/26 15:08:13.000   3863840.7547   1324243.4554   4882771.1575   6  12   0.2468   0.1642   0.3837   0.0779  -0.0424   0.2455   0.00    0.0
2024/06/26 15:08:14.000   3863840.7227   1324243.4364   4882771.1264   6  12   0.2459   0.1636   0.3824   0.0775  -0.0424   0.2447   0.00    0.0
2024/06/26 15:08:15.000   3863840.6861   1324243.4140   4882771.0908   6  12   0.2450   0.1630   0.3811   0.0771  -0.0425   0.2438   0.00    0.0
2024/06/26 15:08:16.000   3863840.6818   1324243.4078   4882771.0770   6  11   0.2443   0.1626   0.3799   0.0770  -0.0422   0.2430   0.00    0.0
2024/06/26 15:08:17.000   3863840.6774   1324243.4020   4882771.0585   6  11   0.2436   0.1621   0.3787   0.0768  -0.0419   0.2423   0.00    0.0
2024/06/26 15:08:18.000   3863840.6362   1324243.3770   4882771.0144   6  12   0.2427   0.1615   0.3774   0.0764  -0.0420   0.2414   0.00    0.0
2024/06/26 15:08:19.000   3863840.5961   1324243.3544   4882770.9691   6  12   0.2418   0.1610   0.3762   0.0760  -0.0420   0.2406   0.00    0.0
2024/06/26 15:08:20.000   3863840.5570   1324243.3319   4882770.9254   6  12   0.2410   0.1604   0.3750   0.0756  -0.0421   0.2398   0.00    0.0
2024/06/26 15:08:21.000   3863840.5194   1324243.3106   4882770.8809   6  12   0.2401   0.1599   0.3738   0.0752  -0.0421   0.2389   0.00    0.0
2024/06/26 15:08:22.000   3863840.4854   1324243.2912   4882770.8407   6  12   0.2393   0.1593   0.3726   0.0749  -0.0422   0.2381   0.00    0.0
2024/06/26 15:08:23.000   3863840.4537   1324243.2718   4882770.8032   6  12   0.2384   0.1588   0.3714   0.0745  -0.0422   0.2373   0.00    0.0
2024/06/26 15:08:24.000   3863840.4242   1324243.2539   4882770.7688   6  12   0.2376   0.1583   0.3702   0.0741  -0.0423   0.2365   0.00    0.0
2024/06/26 15:08:25.000   3863840.3985   1324243.2396   4882770.7317   6  12   0.2368   0.1578   0.3690   0.0737  -0.0423   0.2357   0.00    0.0
2024/06/26 15:08:26.000   3863840.3796   1324243.2301   4882770.6989   6  12   0.2360   0.1573   0.3679   0.0734  -0.0423   0.2349   0.00    0.0
2024/06/26 15:08:27.000   3863840.3705   1324243.2262   4882770.6744   6  12   0.2352   0.1568   0.3667   0.0730  -0.0423   0.2342   0.00    0.0
2024/06/26 15:08:28.000   3863840.3659   1324243.2235   4882770.6519   6  12   0.2344   0.1563   0.3656   0.0727  -0.0424   0.2334   0.00    0.0
2024/06/26 15:08:29.000   3863840.3660   1324243.2222   4882770.6359   6  12   0.2336   0.1558   0.3645   0.0723  -0.0424   0.2326   0.00    0.0
2024/06/26 15:08:30.000   3863840.3730   1324243.2253   4882770.6242   6  12   0.2328   0.1553   0.3634   0.0720  -0.0424   0.2319   0.00    0.0
2024/06/26 15:08:31.000   3863840.3875   1324243.2318   4882770.6237   6  12   0.2321   0.1548   0.3623   0.0716  -0.0424   0.2312   0.00    0.0
2024/06/26 15:08:32.000   3863840.4057   1324243.2394   4882770.6290   6  12   0.2313   0.1543   0.3612   0.0713  -0.0424   0.2304   0.00    0.0
2024/06/26 15:08:33.000   3863840.4313   1324243.2510   4882770.6405   6  12   0.2306   0.1538   0.3601   0.0710  -0.0425   0.2297   0.00    0.0
2024/06/26 15:08:34.000   3863840.4592   1324243.2645   4882770.6557   6  12   0.2298   0.1534   0.3590   0.0706  -0.0425   0.2290   0.00    0.0
2024/06/26 15:08:35.000   3863840.4872   1324243.2774   4882770.6728   6  12   0.2291   0.1529   0.3579   0.0703  -0.0425   0.2282   0.00    0.0
2024/06/26 15:08:36.000   3863840.5148   1324243.2908   4882770.6958   6  12   0.2283   0.1524   0.3569   0.0700  -0.0425   0.2275   0.00    0.0
2024/06/26 15:08:37.000   3863840.5134   1324243.2891   4882770.7018   6  11   0.2278   0.1520   0.3559   0.0699  -0.0422   0.2269   0.00    0.0
2024/06/26 15:08:38.000   3863840.5104   1324243.2878   4882770.7099   6  11   0.2272   0.1516   0.3549   0.0698  -0.0420   0.2263   0.00    0.0
2024/06/26 15:08:39.000   3863840.5084   1324243.2878   4882770.7206   6  11   0.2266   0.1512   0.3539   0.0697  -0.0418   0.2257   0.00    0.0
2024/06/26 15:08:40.000   3863840.5388   1324243.3042   4882770.7559   6  12   0.2259   0.1508   0.3529   0.0694  -0.0418   0.2250   0.00    0.0
2024/06/26 15:08:41.000   3863840.5685   1324243.3221   4882770.7950   6  12   0.2252   0.1503   0.3519   0.0691  -0.0418   0.2243   0.00    0.0
2024/06/26 15:08:42.000   3863840.5996   1324243.3419   4882770.8384   6  12   0.2245   0.1499   0.3509   0.0688  -0.0418   0.2237   0.00    0.0
2024/06/26 15:08:43.000   3863840.6009   1324243.3467   4882770.8688   6  11   0.2239   0.1495   0.3499   0.0687  -0.0416   0.2231   0.00    0.0
2024/06/26 15:08:44.000   3863840.6033   1324243.3532   4882770.9029   6  11   0.2234   0.1491   0.3489   0.0686  -0.0413   0.2225   0.00    0.0
2024/06/26 15:08:45.000   3863840.6039   1324243.3596   4882770.9398   6  11   0.2228   0.1487   0.3480   0.0685  -0.0411   0.2219   0.00    0.0
2024/06/26 15:08:46.000   3863840.6028   1324243.3661   4882770.9774   6  11   0.2223   0.1484   0.3471   0.0685  -0.0409   0.2213   0.00    0.0
2024/06/26 15:08:47.000   3863840.6038   1324243.3717   4882771.0192   6  11   0.2217   0.1480   0.3461   0.0684  -0.0407   0.2208   0.00    0.0
2024/06/26 15:08:48.000   3863840.6063   1324243.3692   4882771.0272   6  10   0.2212   0.1476   0.3453   0.0683  -0.0402   0.2202   0.00    0.0
2024/06/26 15:08:49.000   3863840.6071   1324243.3762   4882771.0738   6  11   0.2206   0.1473   0.3444   0.0682  -0.0400   0.2196   0.00    0.0
2024/06/26 15:08:50.000   3863840.6103   1324243.3763   4882771.0832   6  10   0.2201   0.1469   0.3436   0.0681  -0.0396   0.2191   0.00    0.0
2024/06/26 15:08:51.000   3863840.6146   1324243.3777   4882771.0945   6  10   0.2196   0.1465   0.3429   0.0680  -0.0391   0.2185   0.00    0.0
2024/06/26 15:08:52.000   3863840.6214   1324243.3800   4882771.1070   6  10   0.2191   0.1462   0.3421   0.0679  -0.0387   0.2180   0.00    0.0
2024/06/26 15:08:53.000   3863840.6578   1324243.3979   4882771.1379   6  11   0.2184   0.1458   0.3413   0.0676  -0.0385   0.2173   0.00    0.0
2024/06/26 15:08:54.000   3863840.6889   1324243.4228   4882771.2007   6  12   0.2178   0.1454   0.3404   0.0673  -0.0385   0.2167   0.00    0.0
2024/06/26 15:08:55.000   3863840.7174   1324243.4465   4882771.2584   6  12   0.2172   0.1450   0.3395   0.0671  -0.0386   0.2161   0.00    0.0
2024/06/26 15:08:56.000   3863840.7449   1324243.4686   4882771.3118   6  12   0.2165   0.1446   0.3386   0.0668  -0.0386   0.2155   0.00    0.0
2024/06/26 15:08:57.000   3863840.7736   1324243.4920   4882771.3666   6  12   0.2159   0.1442   0.3377   0.0665  -0.0386   0.2149   0.00    0.0
2024/06/26 15:08:58.000   3863840.8036   1324243.5154   4882771.4218   6  12   0.2153   0.1438   0.3368   0.0662  -0.0386   0.2143   0.00    0.0
2024/06/26 15:08:59.000   3863840.8319   1324243.5377   4882771.4787   6  12   0.2147   0.1434   0.3359   0.0660  -0.0386   0.2137   0.00    0.0
2024/06/26 15:09:00.000   3863840.8596   1324243.5593   4882771.5346   6  12   0.2141   0.1431   0.3350   0.0657  -0.0387   0.2131   0.00    0.0
2024/06/26 15:09:01.000   3863840.8859   1324243.5798   4882771.5910   6  12   0.2135   0.1427   0.3342   0.0655  -0.0387   0.2125   0.00    0.0
2024/06/26 15:09:02.000   3863840.9104   1324243.6002   4882771.6464   6  12   0.2129   0.1423   0.3333   0.0652  -0.0387   0.2120   0.00    0.0
2024/06/26 15:09:03.000   3863840.9317   1324243.6196   4882771.6976   6  12   0.2123   0.1419   0.3324   0.0649  -0.0387   0.2114   0.00    0.0
2024/06/26 15:09:04.000   3863840.9493   1324243.6367   4882771.7475   6  12   0.2117   0.1416   0.3316   0.0647  -0.0387   0.2108   0.00    0.0
2024/06/26 15:09:05.000   3863840.9657   1324243.6541   4882771.7976   6  12   0.2112   0.1412   0.3308   0.0644  -0.0387   0.2103   0.00    0.0
2024/06/26 15:09:06.000   3863840.9840   1324243.6655   4882771.8145   6  11   0.2106   0.1408   0.3300   0.0642  -0.0385   0.2097   0.00    0.0
2024/06/26 15:09:07.000   3863841.0019   1324243.6788   4882771.8287   6  11   0.2100   0.1405   0.3293   0.0639  -0.0383   0.2091   0.00    0.0
2024/06/26 15:09:08.000   3863841.0200   1324243.6940   4882771.8420   6  11   0.2095   0.1401   0.3286   0.0637  -0.0381   0.2086   0.00    0.0
2024/06/26 15:09:09.000   3863841.0362   1324243.7086   4882771.8515   6  11   0.2089   0.1398   0.3279   0.0634  -0.0380   0.2080   0.00    0.0
2024/06/26 15:09:10.000   3863841.0500   1324243.7227   4882771.8568   6  11   0.2083   0.1394   0.3272   0.0632  -0.0378   0.2075   0.00    0.0
2024/06/26 15:09:11.000   3863841.0604   1324243.7351   4882771.8601   6  11   0.2078   0.1391   0.3265   0.0629  -0.0376   0.2069   0.00    0.0
2024/06/26 15:09:12.000   3863841.0677   1324243.7457   4882771.8623   6  11   0.2072   0.1388   0.3258   0.0627  -0.0374   0.2064   0.00    0.0
2024/06/26 15:09:13.000   3863841.0721   1324243.7555   4882771.8601   6  11   0.2067   0.1384   0.3251   0.0625  -0.0372   0.2058   0.00    0.0
2024/06/26 15:09:14.000   3863841.0774   1324243.7656   4882771.8561   6  11   0.2062   0.1381   0.3245   0.0622  -0.0370   0.2053   0.00    0.0
2024/06/26 15:09:15.000   3863841.0792   1324243.7747   4882771.8478   6  11   0.2056   0.1378   0.3238   0.0620  -0.0369   0.2048   0.00    0.0
2024/06/26 15:09:16.000   3863841.0799   1324243.7827   4882771.8406   6  11   0.2051   0.1374   0.3231   0.0618  -0.0367   0.2042   0.00    0.0
2024/06/26 15:09:17.000   3863841.0820   1324243.7899   4882771.8350   6  11   0.2046   0.1371   0.3224   0.0615  -0.0365   0.2037   0.00    0.0
2024/06/26 15:09:18.000   3863841.0824   1324243.7950   4882771.8282   6  11   0.2041   0.1368   0.3218   0.0613  -0.0363   0.2032   0.00    0.0
2024/06/26 15:09:19.000   3863841.0826   1324243.7997   4882771.8211   6  11   0.2035   0.1365   0.3211   0.0611  -0.0361   0.2027   0.00    0.0
2024/06/26 15:09:20.000   3863841.0836   1324243.8038   4882771.8168   6  11   0.2030   0.1361   0.3204   0.0609  -0.0360   0.2022   0.00    0.0
2024/06/26 15:09:21.000   3863841.0837   1324243.8068   4882771.8128   6  11   0.2025   0.1358   0.3198   0.0606  -0.0358   0.2017   0.00    0.0
2024/06/26 15:09:22.000   3863841.0826   1324243.8099   4882771.8054   6  11   0.2020   0.1355   0.3191   0.0604  -0.0356   0.2011   0.00    0.0
2024/06/26 15:09:23.000   3863841.0823   1324243.8123   4882771.7992   6  11   0.2015   0.1352   0.3185   0.0602  -0.0354   0.2006   0.00    0.0
2024/06/26 15:09:24.000   3863841.0795   1324243.8143   4882771.7910   6  11   0.2010   0.1349   0.3179   0.0600  -0.0353   0.2002   0.00    0.0
2024/06/26 15:09:25.000   3863841.0746   1324243.8160   4882771.7807   6  11   0.2005   0.1346   0.3172   0.0598  -0.0351   0.1997   0.00    0.0
2024/06/26 15:09:26.000   3863841.0693   1324243.8179   4882771.7686   6  11   0.2000   0.1343   0.3166   0.0596  -0.0349   0.1992   0.00    0.0
2024/06/26 15:09:27.000   3863841.0622   1324243.8196   4882771.7552   6  11   0.1995   0.1340   0.3160   0.0594  -0.0347   0.1987   0.00    0.0
2024/06/26 15:09:28.000   3863841.0558   1324243.8218   4882771.7429   6  11   0.1991   0.1337   0.3153   0.0592  -0.0346   0.1982   0.00    0.0
2024/06/26 15:09:29.000   3863841.0549   1324243.8263   4882771.7361   6  11   0.1986   0.1334   0.3147   0.0590  -0.0344   0.1977   0.00    0.0
2024/06/26 15:09:30.000   3863841.0574   1324243.8334   4882771.7301   6  11   0.1981   0.1331   0.3141   0.0588  -0.0342   0.1972   0.00    0.0
2024/06/26 15:09:31.000   3863841.0613   1324243.8413   4882771.7244   6  11   0.1976   0.1328   0.3135   0.0586  -0.0341   0.1968   0.00    0.0
2024/06/26 15:09:32.000   3863841.0564   1324243.8442   4882771.7141   6  10   0.1973   0.1325   0.3129   0.0585  -0.0337   0.1964   0.00    0.0
2024/06/26 15:09:33.000   3863841.0528   1324243.8466   4882771.7065   6  10   0.1969   0.1323   0.3123   0.0585  -0.0334   0.1959   0.00    0.0
2024/06/26 15:09:34.000   3863841.0494   1324243.8486   4882771.6989   6  10   0.1965   0.1320   0.3117   0.0584  -0.0331   0.1955   0.00    0.0
2024/06/26 15:09:35.000   3863841.0459   1324243.8518   4882771.6904   6  10   0.1961   0.1317   0.3112   0.0584  -0.0327   0.1951   0.00    0.0
2024/06/26 15:09:36.000   3863841.0433   1324243.8535   4882771.6846   6  10   0.1957   0.1315   0.3106   0.0583  -0.0324   0.1947   0.00    0.0
2024/06/26 15:09:37.000   3863841.0402   1324243.8559   4882771.6755   6  10   0.1954   0.1312   0.3100   0.0583  -0.0321   0.1943   0.00    0.0
2024/06/26 15:09:38.000   3863841.0544   1324243.8667   4882771.6772   6  11   0.1949   0.1310   0.3094   0.0581  -0.0319   0.1939   0.00    0.0
2024/06/26 15:09:39.000   3863841.0597   1324243.8729   4882771.6728   6  11   0.1945   0.1307   0.3088   0.0579  -0.0318   0.1934   0.00    0.0
2024/06/26 15:09:40.000   3863841.0542   1324243.8744   4882771.6581   6  10   0.1941   0.1304   0.3083   0.0578  -0.0314   0.1930   0.00    0.0
2024/06/26 15:09:41.000   3863841.0499   1324243.8750   4882771.6462   6  10   0.1937   0.1302   0.3077   0.0578  -0.0311   0.1926   0.00    0.0
2024/06/26 15:09:42.000   3863841.0472   1324243.8744   4882771.6393   6  10   0.1934   0.1299   0.3072   0.0577  -0.0308   0.1922   0.00    0.0
2024/06/26 15:09:43.000   3863841.0442   1324243.8732   4882771.6344   6  10   0.1930   0.1297   0.3066   0.0577  -0.0305   0.1918   0.00    0.0
2024/06/26 15:09:44.000   3863841.0425   1324243.8714   4882771.6326   6  10   0.1927   0.1295   0.3061   0.0576  -0.0301   0.1915   0.00    0.0
2024/06/26 15:09:45.000   3863841.0260   1324243.8622   4882771.6197   6  11   0.1922   0.1292   0.3055   0.0574  -0.0300   0.1910   0.00    0.0
2024/06/26 15:09:46.000   3863841.0044   1324243.8507   4882771.6038   6  11   0.1918   0.1289   0.3049   0.0572  -0.0298   0.1906   0.00    0.0
2024/06/26 15:09:47.000   3863840.9884   1324243.8413   4882771.5918   6  11   0.1914   0.1287   0.3044   0.0571  -0.0297   0.1902   0.00    0.0
2024/06/26 15:09:48.000   3863840.9774   1324243.8344   4882771.5831   6  11   0.1909   0.1284   0.3038   0.0569  -0.0295   0.1897   0.00    0.0
2024/06/26 15:09:49.000   3863840.9652   1324243.8262   4882771.5761   6  11   0.1905   0.1281   0.3033   0.0567  -0.0294   0.1893   0.00    0.0
2024/06/26 15:09:50.000   3863840.9512   1324243.8179   4882771.5693   6  11   0.1901   0.1279   0.3027   0.0565  -0.0292   0.1889   0.00    0.0
2024/06/26 15:09:51.000   3863840.9377   1324243.8083   4882771.5658   6  11   0.1897   0.1276   0.3022   0.0563  -0.0291   0.1885   0.00    0.0
2024/06/26 15:09:52.000   3863840.9226   1324243.7979   4882771.5632   6  11   0.1893   0.1273   0.3016   0.0562  -0.0290   0.1881   0.00    0.0
2024/06/26 15:09:53.000   3863840.9265   1324243.7972   4882771.5735   6  10   0.1889   0.1271   0.3011   0.0561  -0.0286   0.1877   0.00    0.0
2024/06/26 15:09:54.000   3863840.9315   1324243.7976   4882771.5842   6  10   0.1886   0.1269   0.3006   0.0561  -0.0283   0.1873   0.00    0.0
2024/06/26 15:09:55.000   3863840.9366   1324243.7970   4882771.5961   6  10   0.1883   0.1267   0.3000   0.0560  -0.0280   0.1870   0.00    0.0
2024/06/26 15:09:56.000   3863840.9436   1324243.7967   4882771.6101   6  10   0.1879   0.1264   0.2995   0.0560  -0.0277   0.1866   0.00    0.0
2024/06/26 15:09:57.000   3863840.9509   1324243.7970   4882771.6244   6  10   0.1876   0.1262   0.2990   0.0559  -0.0274   0.1862   0.00    0.0
2024/06/26 15:09:58.000   3863840.9600   1324243.7976   4882771.6414   6  10   0.1873   0.1260   0.2985   0.0559  -0.0271   0.1859   0.00    0.0
2024/06/26 15:09:59.000   3863840.9697   1324243.7972   4882771.6622   6  10   0.1869   0.1258   0.2980   0.0559  -0.0268   0.1855   0.00    0.0
2024/06/26 15:10:00.000   3863840.9798   1324243.7979   4882771.6852   6  10   0.1866   0.1256   0.2975   0.0558  -0.0265   0.1852   0.00    0.0
2024/06/26 15:10:01.000   3863840.9909   1324243.7994   4882771.7084   6  10   0.1863   0.1253   0.2970   0.0558  -0.0262   0.1848   0.00    0.0
2024/06/26 15:10:02.000   3863841.0024   1324243.8013   4882771.7326   6  10   0.1860   0.1251   0.2965   0.0557  -0.0259   0.1845   0.00    0.0
2024/06/26 15:10:03.000   3863841.0150   1324243.8043   4882771.7590   6  10   0.1856   0.1249   0.2960   0.0557  -0.0256   0.1841   0.00    0.0
2024/06/26 15:10:04.000   3863841.0286   1324243.8075   4882771.7868   6  10   0.1853   0.1247   0.2955   0.0556  -0.0252   0.1838   0.00    0.0
2024/06/26 15:10:05.000   3863841.0414   1324243.8114   4882771.8110   6  10   0.1850   0.1245   0.2950   0.0556  -0.0249   0.1835   0.00    0.0
2024/06/26 15:10:06.000   3863841.0547   1324243.8150   4882771.8380   6  10   0.1847   0.1243   0.2945   0.0555  -0.0246   0.1831   0.00    0.0
2024/06/26 15:10:07.000   3863841.0669   1324243.8189   4882771.8642   6  10   0.1844   0.1241   0.2940   0.0555  -0.0243   0.1828   0.00    0.0
2024/06/26 15:10:08.000   3863841.0787   1324243.8240   4882771.8877   6  10   0.1841   0.1238   0.2935   0.0554  -0.0240   0.1824   0.00    0.0
2024/06/26 15:10:09.000   3863841.0899   1324243.8304   4882771.9093   6  10   0.1838   0.1236   0.2931   0.0554  -0.0237   0.1821   0.00    0.0
2024/06/26 15:10:10.000   3863841.0999   1324243.8372   4882771.9300   6  10   0.1835   0.1234   0.2926   0.0554  -0.0234   0.1818   0.00    0.0
2024/06/26 15:10:11.000   3863841.1095   1324243.8435   4882771.9499   6  10   0.1832   0.1232   0.2921   0.0553  -0.0231   0.1814   0.00    0.0
2024/06/26 15:10:12.000   3863841.1186   1324243.8505   4882771.9668   6  10   0.1828   0.1230   0.2916   0.0553  -0.0228   0.1811   0.00    0.0
2024/06/26 15:10:13.000   3863841.1268   1324243.8578   4882771.9831   6  10   0.1825   0.1228   0.2911   0.0552  -0.0225   0.1808   0.00    0.0
2024/06/26 15:10:14.000   3863841.1343   1324243.8649   4882771.9978   6  10   0.1822   0.1226   0.2907   0.0552  -0.0222   0.1805   0.00    0.0
2024/06/26 15:10:15.000   3863841.1406   1324243.8719   4882772.0083   6  10   0.1819   0.1224   0.2902   0.0551  -0.0219   0.1801   0.00    0.0
2024/06/26 15:10:16.000   3863841.1456   1324243.8788   4882772.0154   6  10   0.1816   0.1222   0.2897   0.0551  -0.0215   0.1798   0.00    0.0
2024/06/26 15:10:17.000   3863841.1495   1324243.8855   4882772.0206   6  10   0.1813   0.1220   0.2893   0.0550  -0.0212   0.1795   0.00    0.0
2024/06/26 15:10:18.000   3863841.1532   1324243.8910   4882772.0266   6  10   0.1810   0.1218   0.2888   0.0550  -0.0209   0.1792   0.00    0.0
2024/06/26 15:10:19.000   3863841.1569   1324243.8960   4882772.0307   6  10   0.1808   0.1216   0.2883   0.0549  -0.0206   0.1789   0.00    0.0
2024/06/26 15:10:20.000   3863841.1604   1324243.9010   4882772.0338   6  10   0.1805   0.1214   0.2879   0.0549  -0.0203   0.1785   0.00    0.0
2024/06/26 15:10:21.000   3863841.1628   1324243.9055   4882772.0352   6  10   0.1802   0.1212   0.2874   0.0549  -0.0200   0.1782   0.00    0.0
2024/06/26 15:10:22.000   3863841.1633   1324243.9095   4882772.0313   6  10   0.1799   0.1210   0.2870   0.0548  -0.0197   0.1779   0.00    0.0
2024/06/26 15:10:23.000   3863841.1636   1324243.9139   4882772.0269   6  10   0.1796   0.1208   0.2865   0.0548  -0.0193   0.1776   0.00    0.0
2024/06/26 15:10:24.000   3863841.1630   1324243.9174   4882772.0181   6  10   0.1793   0.1206   0.2861   0.0547  -0.0190   0.1773   0.00    0.0
2024/06/26 15:10:25.000   3863841.1617   1324243.9199   4882772.0075   6  10   0.1790   0.1204   0.2856   0.0547  -0.0187   0.1770   0.00    0.0
2024/06/26 15:10:26.000   3863841.1676   1324243.9252   4882772.0023   6  11   0.1787   0.1202   0.2852   0.0545  -0.0186   0.1766   0.00    0.0
2024/06/26 15:10:27.000   3863841.1681   1324243.9277   4882771.9945   6  11   0.1783   0.1200   0.2847   0.0544  -0.0185   0.1763   0.00    0.0
2024/06/26 15:10:28.000   3863841.1671   1324243.9295   4882771.9854   6  11   0.1780   0.1198   0.2842   0.0542  -0.0183   0.1759   0.00    0.0
2024/06/26 15:10:29.000   3863841.1666   1324243.9310   4882771.9780   6  11   0.1776   0.1196   0.2838   0.0541  -0.0182   0.1756   0.00    0.0
2024/06/26 15:10:30.000   3863841.1677   1324243.9320   4882771.9710   6  11   0.1773   0.1194   0.2833   0.0539  -0.0181   0.1753   0.00    0.0
2024/06/26 15:10:31.000   3863841.1686   1324243.9336   4882771.9632   6  11   0.1769   0.1192   0.2829   0.0538  -0.0180   0.1749   0.00    0.0
2024/06/26 15:10:32.000   3863841.1747   1324243.9386   4882771.9577   6  11   0.1766   0.1189   0.2824   0.0536  -0.0179   0.1746   0.00    0.0
2024/06/26 15:10:33.000   3863841.1868   1324243.9471   4882771.9566   6  11   0.1763   0.1187   0.2820   0.0535  -0.0178   0.1742   0.00    0.0
2024/06/26 15:10:34.000   3863841.1999   1324243.9558   4882771.9565   6  11   0.1759   0.1185   0.2815   0.0533  -0.0176   0.1739   0.00    0.0
2024/06/26 15:10:35.000   3863841.2058   1324243.9612   4882771.9523   6  11   0.1756   0.1183   0.2811   0.0532  -0.0175   0.1736   0.00    0.0
2024/06/26 15:10:36.000   3863841.2114   1324243.9653   4882771.9504   6  11   0.1753   0.1181   0.2807   0.0530  -0.0174   0.1732   0.00    0.0
2024/06/26 15:10:37.000   3863841.2139   1324243.9675   4882771.9477   6  11   0.1749   0.1179   0.2802   0.0529  -0.0173   0.1729   0.00    0.0
2024/06/26 15:10:38.000   3863841.2114   1324243.9669   4882771.9409   6  11   0.1746   0.1177   0.2798   0.0527  -0.0172   0.1726   0.00    0.0
2024/06/26 15:10:39.000   3863841.2037   1324243.9637   4882771.9311   6  11   0.1743   0.1175   0.2793   0.0526  -0.0170   0.1723   0.00    0.0
2024/06/26 15:10:40.000   3863841.1957   1324243.9602   4882771.9213   6  11   0.1740   0.1173   0.2789   0.0524  -0.0169   0.1719   0.00    0.0
2024/06/26 15:10:41.000   3863841.1896   1324243.9575   4882771.9135   6  11   0.1737   0.1171   0.2785   0.0523  -0.0168   0.1716   0.00    0.0
2024/06/26 15:10:42.000   3863841.1807   1324243.9537   4882771.9062   6  11   0.1733   0.1169   0.2781   0.0522  -0.0167   0.1713   0.00    0.0
2024/06/26 15:10:43.000   3863841.1680   1324243.9477   4882771.8984   6  11   0.1730   0.1167   0.2776   0.0520  -0.0166   0.1710   0.00    0.0
2024/06/26 15:10:44.000   3863841.1641   1324243.9462   4882771.8968   6  10   0.1728   0.1165   0.2772   0.0520  -0.0163   0.1707   0.00    0.0
2024/06/26 15:10:45.000   3863841.1603   1324243.9434   4882771.8964   6  10   0.1725   0.1163   0.2768   0.0519  -0.0159   0.1704   0.00    0.0
2024/06/26 15:10:46.000   3863841.1577   1324243.9399   4882771.8977   6  10   0.1722   0.1162   0.2764   0.0519  -0.0156   0.1702   0.00    0.0
2024/06/26 15:10:47.000   3863841.1553   1324243.9358   4882771.8997   6  10   0.1720   0.1160   0.2760   0.0519  -0.0153   0.1699   0.00    0.0
2024/06/26 15:10:48.000   3863841.1534   1324243.9314   4882771.9014   6  10   0.1717   0.1158   0.2756   0.0518  -0.0150   0.1696   0.00    0.0
2024/06/26 15:10:49.000   3863841.1499   1324243.9256   4882771.9019   6  10   0.1715   0.1157   0.2752   0.0518  -0.0146   0.1693   0.00    0.0
2024/06/26 15:10:50.000   3863841.1469   1324243.9187   4882771.9045   6  10   0.1712   0.1155   0.2748   0.0518  -0.0143   0.1691   0.00    0.0
2024/06/26 15:10:51.000   3863841.1434   1324243.9113   4882771.9070   6  10   0.1710   0.1153   0.2744   0.0517  -0.0139   0.1688   0.00    0.0
2024/06/26 15:10:52.000   3863841.1398   1324243.9030   4882771.9104   6  10   0.1707   0.1152   0.2740   0.0517  -0.0136   0.1685   0.00    0.0
2024/06/26 15:10:53.000   3863841.1364   1324243.8942   4882771.9140   6  10   0.1705   0.1150   0.2736   0.0516  -0.0132   0.1683   0.00    0.0
2024/06/26 15:10:54.000   3863841.1324   1324243.8857   4882771.9162   6  10   0.1702   0.1148   0.2732   0.0516  -0.0129   0.1680   0.00    0.0
2024/06/26 15:10:55.000   3863841.1294   1324243.8762   4882771.9202   6  10   0.1700   0.1147   0.2728   0.0516  -0.0125   0.1677   0.00    0.0
2024/06/26 15:10:56.000   3863841.1262   1324243.8669   4882771.9232   6  10   0.1698   0.1145   0.2724   0.0515  -0.0122   0.1675   0.00    0.0
2024/06/26 15:10:57.000   3863841.1234   1324243.8571   4882771.9275   6  10   0.1695   0.1143   0.2720   0.0515  -0.0118   0.1672   0.00    0.0
2024/06/26 15:10:58.000   3863841.1209   1324243.8468   4882771.9313   6  10   0.1693   0.1142   0.2716   0.0515  -0.0114   0.1669   0.00    0.0
2024/06/26 15:10:59.000   3863841.1187   1324243.8357   4882771.9336   6  10   0.1690   0.1140   0.2713   0.0514  -0.0110   0.1667   0.00    0.0
2024/06/26 15:11:00.000   3863841.1169   1324243.8243   4882771.9355   6  10   0.1688   0.1138   0.2709   0.0514  -0.0106   0.1664   0.00    0.0
2024/06/26 15:11:01.000   3863841.1146   1324243.8140   4882771.9362   6  10   0.1686   0.1137   0.2705   0.0514  -0.0102   0.1661   0.00    0.0
2024/06/26 15:11:02.000   3863841.1124   1324243.8038   4882771.9362   6  10   0.1683   0.1135   0.2701   0.0513  -0.0098   0.1659   0.00    0.0
2024/06/26 15:11:03.000   3863841.1110   1324243.7931   4882771.9371   6  10   0.1681   0.1134   0.2697   0.0513  -0.0093   0.1656   0.00    0.0
2024/06/26 15:11:04.000   3863841.1096   1324243.7822   4882771.9364   6  10   0.1678   0.1132   0.2693   0.0512  -0.0088   0.1654   0.00    0.0
2024/06/26 15:11:05.000   3863841.1080   1324243.7709   4882771.9345   6  10   0.1676   0.1131   0.2690   0.0512  -0.0084   0.1651   0.00    0.0
2024/06/26 15:11:06.000   3863841.1066   1324243.7592   4882771.9325   6  10   0.1674   0.1129   0.2686   0.0512  -0.0079   0.1649   0.00    0.0
2024/06/26 15:11:07.000   3863841.1055   1324243.7480   4882771.9304   6  10   0.1671   0.1127   0.2682   0.0511  -0.0073   0.1646   0.00    0.0
2024/06/26 15:11:08.000   3863841.1038   1324243.7365   4882771.9265   6  10   0.1669   0.1126   0.2678   0.0511  -0.0068   0.1644   0.00    0.0
2024/06/26 15:11:09.000   3863841.1024   1324243.7250   4882771.9229   6  10   0.1667   0.1124   0.2675   0.0511  -0.0061   0.1641   0.00    0.0
2024/06/26 15:11:10.000   3863841.1013   1324243.7142   4882771.9197   6  10   0.1665   0.1123   0.2671   0.0510  -0.0055   0.1639   0.00    0.0
2024/06/26 15:11:11.000   3863841.1003   1324243.7041   4882771.9154   6  10   0.1662   0.1121   0.2667   0.0510  -0.0047   0.1636   0.00    0.0
2024/06/26 15:11:12.000   3863841.0993   1324243.6946   4882771.9107   6  10   0.1660   0.1120   0.2664   0.0509  -0.0038   0.1634   0.00    0.0
2024/06/26 15:11:13.000   3863841.0984   1324243.6853   4882771.9056   6  10   0.1658   0.1118   0.2660   0.0509  -0.0026   0.1631   0.00    0.0
2024/06/26 15:11:14.000   3863841.0971   1324243.6761   4882771.8991   6  10   0.1655   0.1117   0.2656   0.0509   0.0009   0.1629   0.00    0.0
2024/06/26 15:11:15.000   3863841.0962   1324243.6677   4882771.8909   6  10   0.1653   0.1115   0.2653   0.0508   0.0029   0.1626   0.00    0.0
2024/06/26 15:11:16.000   3863841.0917   1324243.6653   4882771.9050   6  11   0.1651   0.1114   0.2649   0.0508   0.0028   0.1624   0.00    0.0
2024/06/26 15:11:17.000   3863841.0874   1324243.6631   4882771.9192   6  11   0.1649   0.1112   0.2644   0.0508   0.0028   0.1622   0.00    0.0
2024/06/26 15:11:18.000   3863841.0842   1324243.6611   4882771.9326   6  11   0.1646   0.1110   0.2640   0.0507   0.0028   0.1619   0.00    0.0
2024/06/26 15:11:19.000   3863841.0808   1324243.6589   4882771.9434   6  11   0.1644   0.1109   0.2636   0.0507   0.0027   0.1617   0.00    0.0
2024/06/26 15:11:20.000   3863841.0774   1324243.6567   4882771.9531   6  11   0.1642   0.1107   0.2632   0.0507   0.0027   0.1615   0.00    0.0
2024/06/26 15:11:21.000   3863841.0744   1324243.6547   4882771.9614   6  11   0.1640   0.1106   0.2627   0.0507   0.0027   0.1613   0.00    0.0
2024/06/26 15:11:22.000   3863841.0718   1324243.6525   4882771.9683   6  11   0.1638   0.1104   0.2623   0.0506   0.0026   0.1610   0.00    0.0
2024/06/26 15:11:23.000   3863841.0710   1324243.6507   4882771.9764   6  11   0.1635   0.1103   0.2619   0.0506   0.0026   0.1608   0.00    0.0
2024/06/26 15:11:24.000   3863841.0712   1324243.6495   4882771.9842   6  11   0.1633   0.1101   0.2615   0.0506   0.0026   0.1606   0.00    0.0
2024/06/26 15:11:25.000   3863841.0719   1324243.6487   4882771.9929   6  11   0.1631   0.1100   0.2611   0.0505   0.0026   0.1604   0.00    0.0
2024/06/26 15:11:26.000   3863841.0729   1324243.6487   4882772.0041   6  11   0.1629   0.1098   0.2607   0.0505   0.0026   0.1601   0.00    0.0
2024/06/26 15:11:27.000   3863841.0745   1324243.6486   4882772.0147   6  11   0.1627   0.1097   0.2603   0.0505   0.0025   0.1599   0.00    0.0
2024/06/26 15:11:28.000   3863841.0768   1324243.6486   4882772.0259   6  11   0.1625   0.1095   0.2599   0.0504   0.0025   0.1597   0.00    0.0
2024/06/26 15:11:29.000   3863841.0789   1324243.6489   4882772.0384   6  11   0.1622   0.1094   0.2595   0.0504   0.0025   0.1595   0.00    0.0
2024/06/26 15:11:30.000   3863841.0807   1324243.6492   4882772.0517   6  11   0.1620   0.1092   0.2591   0.0504   0.0025   0.1593   0.00    0.0
2024/06/26 15:11:31.000   3863841.0831   1324243.6492   4882772.0647   6  11   0.1618   0.1091   0.2587   0.0504   0.0025   0.1590   0.00    0.0
2024/06/26 15:11:32.000   3863841.0857   1324243.6494   4882772.0782   6  11   0.1616   0.1089   0.2583   0.0503   0.0025   0.1588   0.00    0.0
2024/06/26 15:11:33.000   3863841.0890   1324243.6493   4882772.0926   6  11   0.1614   0.1088   0.2579   0.0503   0.0025   0.1586   0.00    0.0
2024/06/26 15:11:34.000   3863841.0922   1324243.6493   4882772.1070   6  11   0.1612   0.1086   0.2575   0.0503   0.0025   0.1584   0.00    0.0
2024/06/26 15:11:35.000   3863841.0950   1324243.6495   4882772.1221   6  11   0.1610   0.1085   0.2571   0.0502   0.0025   0.1582   0.00    0.0
2024/06/26 15:11:36.000   3863841.0984   1324243.6498   4882772.1373   6  11   0.1608   0.1083   0.2567   0.0502   0.0025   0.1580   0.00    0.0
2024/06/26 15:11:37.000   3863841.1023   1324243.6512   4882772.1519   6  11   0.1606   0.1082   0.2563   0.0502   0.0025   0.1578   0.00    0.0
2024/06/26 15:11:38.000   3863841.1062   1324243.6531   4882772.1681   6  11   0.1604   0.1080   0.2559   0.0501   0.0025   0.1575   0.00    0.0
2024/06/26 15:11:39.000   3863841.1095   1324243.6559   4882772.1838   6  11   0.1601   0.1079   0.2555   0.0501   0.0025   0.1573   0.00    0.0
2024/06/26 15:11:40.000   3863841.1127   1324243.6589   4882772.1997   6  11   0.1599   0.1078   0.2551   0.0501   0.0025   0.1571   0.00    0.0
2024/06/26 15:11:41.000   3863841.1154   1324243.6616   4882772.2160   6  11   0.1597   0.1076   0.2547   0.0501   0.0025   0.1569   0.00    0.0
2024/06/26 15:11:42.000   3863841.1176   1324243.6643   4882772.2312   6  11   0.1595   0.1075   0.2544   0.0500   0.0025   0.1567   0.00    0.0
2024/06/26 15:11:43.000   3863841.1197   1324243.6669   4882772.2470   6  11   0.1593   0.1073   0.2540   0.0500   0.0025   0.1565   0.00    0.0
2024/06/26 15:11:44.000   3863841.1217   1324243.6702   4882772.2633   6  11   0.1591   0.1072   0.2536   0.0500   0.0025   0.1563   0.00    0.0
2024/06/26 15:11:45.000   3863841.1243   1324243.6742   4882772.2820   6  11   0.1589   0.1071   0.2532   0.0499   0.0025   0.1561   0.00    0.0
2024/06/26 15:11:46.000   3863841.1264   1324243.6781   4882772.3019   6  11   0.1587   0.1069   0.2529   0.0499   0.0025   0.1559   0.00    0.0
2024/06/26 15:11:47.000   3863841.1294   1324243.6821   4882772.3229   6  11   0.1585   0.1068   0.2525   0.0499   0.0025   0.1557   0.00    0.0
2024/06/26 15:11:48.000   3863841.1325   1324243.6864   4882772.3439   6  11   0.1583   0.1066   0.2521   0.0498   0.0026   0.1555   0.00    0.0
2024/06/26 15:11:49.000   3863841.1346   1324243.6905   4882772.3639   6  11   0.1581   0.1065   0.2517   0.0498   0.0026   0.1553   0.00    0.0
2024/06/26 15:11:50.000   3863841.1370   1324243.6949   4882772.3849   6  11   0.1579   0.1064   0.2514   0.0498   0.0026   0.1551   0.00    0.0
2024/06/26 15:11:51.000   3863841.1385   1324243.6988   4882772.4052   6  11   0.1577   0.1062   0.2510   0.0498   0.0026   0.1549   0.00    0.0
2024/06/26 15:11:52.000   3863841.1403   1324243.7024   4882772.4259   6  11   0.1575   0.1061   0.2506   0.0497   0.0026   0.1547   0.00    0.0
2024/06/26 15:11:53.000   3863841.1427   1324243.7057   4882772.4457   6  11   0.1573   0.1060   0.2503   0.0497   0.0026   0.1545   0.00    0.0
2024/06/26 15:11:54.000   3863841.1446   1324243.7092   4882772.4642   6  11   0.1572   0.1058   0.2499   0.0497   0.0027   0.1543   0.00    0.0
2024/06/26 15:11:55.000   3863841.1471   1324243.7124   4882772.4846   6  11   0.1570   0.1057   0.2496   0.0496   0.0027   0.1541   0.00    0.0
2024/06/26 15:11:56.000   3863841.1489   1324243.7155   4882772.5046   6  11   0.1568   0.1056   0.2492   0.0496   0.0027   0.1539   0.00    0.0
2024/06/26 15:11:57.000   3863841.1499   1324243.7184   4882772.5218   6  11   0.1566   0.1054   0.2488   0.0496   0.0027   0.1537   0.00    0.0
2024/06/26 15:11:58.000   3863841.1495   1324243.7216   4882772.5368   6  11   0.1564   0.1053   0.2485   0.0495   0.0027   0.1535   0.00    0.0
2024/06/26 15:11:59.000   3863841.1488   1324243.7244   4882772.5523   6  11   0.1562   0.1052   0.2481   0.0495   0.0028   0.1533   0.00    0.0
2024/06/26 15:12:00.000   3863841.1478   1324243.7275   4882772.5677   6  11   0.1560   0.1050   0.2478   0.0495   0.0028   0.1531   0.00    0.0
2024/06/26 15:12:01.000   3863841.1470   1324243.7312   4882772.5819   6  11   0.1558   0.1049   0.2474   0.0495   0.0028   0.1529   0.00    0.0
2024/06/26 15:12:02.000   3863841.1460   1324243.7344   4882772.5955   6  11   0.1556   0.1048   0.2471   0.0494   0.0028   0.1527   0.00    0.0
2024/06/26 15:12:03.000   3863841.1452   1324243.7372   4882772.6091   6  11   0.1554   0.1046   0.2467   0.0494   0.0029   0.1525   0.00    0.0
2024/06/26 15:12:04.000   3863841.1441   1324243.7396   4882772.6213   6  11   0.1553   0.1045   0.2464   0.0494   0.0029   0.1523   0.00    0.0
2024/06/26 15:12:05.000   3863841.1429   1324243.7416   4882772.6329   6  11   0.1551   0.1044   0.2460   0.0493   0.0029   0.1521   0.00    0.0
2024/06/26 15:12:06.000   3863841.1413   1324243.7429   4882772.6447   6  11   0.1549   0.1043   0.2457   0.0493   0.0029   0.1519   0.00    0.0
2024/06/26 15:12:07.000   3863841.1401   1324243.7445   4882772.6582   6  11   0.1547   0.1041   0.2453   0.0493   0.0030   0.1517   0.00    0.0
2024/06/26 15:12:08.000   3863841.1392   1324243.7459   4882772.6713   6  11   0.1545   0.1040   0.2450   0.0492   0.0030   0.1515   0.00    0.0
2024/06/26 15:12:09.000   3863841.1383   1324243.7469   4882772.6827   6  11   0.1543   0.1039   0.2447   0.0492   0.0030   0.1513   0.00    0.0
2024/06/26 15:12:10.000   3863841.1372   1324243.7481   4882772.6927   6  11   0.1541   0.1037   0.2443   0.0492   0.0031   0.1512   0.00    0.0
2024/06/26 15:12:11.000   3863841.1357   1324243.7495   4882772.7022   6  11   0.1540   0.1036   0.2440   0.0492   0.0031   0.1510   0.00    0.0
2024/06/26 15:12:12.000   3863841.1346   1324243.7509   4882772.7123   6  11   0.1538   0.1035   0.2437   0.0491   0.0031   0.1508   0.00    0.0
2024/06/26 15:12:13.000   3863841.1333   1324243.7517   4882772.7225   6  11   0.1536   0.1034   0.2433   0.0491   0.0031   0.1506   0.00    0.0
2024/06/26 15:12:14.000   3863841.1326   1324243.7525   4882772.7326   6  11   0.1534   0.1032   0.2430   0.0491   0.0032   0.1504   0.00    0.0
2024/06/26 15:12:15.000   3863841.1317   1324243.7540   4882772.7416   6  11   0.1532   0.1031   0.2427   0.0490   0.0032   0.1502   0.00    0.0
2024/06/26 15:12:16.000   3863841.1305   1324243.7559   4882772.7515   6  11   0.1531   0.1030   0.2423   0.0490   0.0032   0.1500   0.00    0.0
2024/06/26 15:12:17.000   3863841.1299   1324243.7579   4882772.7627   6  11   0.1529   0.1029   0.2420   0.0490   0.0033   0.1499   0.00    0.0
2024/06/26 15:12:18.000   3863841.1293   1324243.7604   4882772.7737   6  11   0.1527   0.1027   0.2417   0.0489   0.0033   0.1497   0.00    0.0
2024/06/26 15:12:19.000   3863841.1283   1324243.7627   4882772.7844   6  11   0.1525   0.1026   0.2413   0.0489   0.0033   0.1495   0.00    0.0
2024/06/26 15:12:20.000   3863841.1266   1324243.7648   4882772.7953   6  11   0.1523   0.1025   0.2410   0.0489   0.0033   0.1493   0.00    0.0
2024/06/26 15:12:21.000   3863841.1244   1324243.7674   4882772.8060   6  11   0.1522   0.1024   0.2407   0.0489   0.0034   0.1491   0.00    0.0
2024/06/26 15:12:22.000   3863841.1225   1324243.7703   4882772.8161   6  11   0.1520   0.1023   0.2404   0.0488   0.0034   0.1489   0.00    0.0
2024/06/26 15:12:23.000   3863841.1201   1324243.7732   4882772.8245   6  11   0.1518   0.1021   0.2400   0.0488   0.0034   0.1488   0.00    0.0
2024/06/26 15:12:24.000   3863841.1167   1324243.7766   4882772.8298   6  11   0.1516   0.1020   0.2397   0.0488   0.0035   0.1486   0.00    0.0
2024/06/26 15:12:25.000   3863841.1134   1324243.7806   4882772.8347   6  11   0.1515   0.1019   0.2394   0.0487   0.0035   0.1484   0.00    0.0
2024/06/26 15:12:26.000   3863841.1098   1324243.7843   4882772.8385   6  11   0.1513   0.1018   0.2391   0.0487   0.0035   0.1482   0.00    0.0
2024/06/26 15:12:27.000   3863841.1055   1324243.7876   4882772.8409   6  11   0.1511   0.1017   0.2388   0.0487   0.0036   0.1481   0.00    0.0
