     3.04           OBSERVATION DATA    M: Mixed            RINEX VERSION / TYPE
CONVBIN demo5 b34j                      20240704 090716 UTC PGM / RUN BY / DATE 
log: ../ubx/R9_2024-06-26_16_59.ubx                         COMMENT             
format: u-blox UBX                                          COMMENT             
format: u-blox UBX                                          COMMENT             
log: ../ubx/R9_2024-06-26_16_59.ubx                         COMMENT             
                                                            MARKER NAME         
                                                            MARKER NUMBER       
                                                            MARKER TYPE         
                                                            OBSERVER / AGENCY   
                                                            REC # / TYPE / VERS 
                                                            ANT # / TYPE        
  3863837.0287  1324243.4031  4882769.9962                  APPROX POSITION XYZ 
        0.0000        0.0000        0.0000                  ANTENNA: DELTA H/E/N
G    8 C1C L1C D1C S1C C2X L2X D2X S2X                      SYS / # / OBS TYPES 
E    8 C1X L1X D1X S1X C7X L7X D7X S7X                      SYS / # / OBS TYPES 
  2024    06    26    14    59   40.9960000     GPS         TIME OF FIRST OBS   
  2024    06    26    15    29   21.9970000     GPS         TIME OF LAST OBS    
G L1C                                                       SYS / PHASE SHIFT   
G L2X  0.00000                                              SYS / PHASE SHIFT   
E L1X  0.00000                                              SYS / PHASE SHIFT   
E L7X  0.00000                                              SYS / PHASE SHIFT   
  0                                                         GLONASS SLOT / FRQ #
                                                            GLONASS COD/PHS/BIS 
                                                            END OF HEADER       
> 2024 06 26 14 59 40.9960000  0 13                     
G06  21704621.602   114058552.1291       2081.627          40.000    21704623.836    88876806.3181       1621.797          38.000  
G04  19282069.839   101327960.0531        557.251          45.000                                                                  
G02  21837075.128   114754598.8481      -4042.877          43.000                                                                  
G03  18851561.247    99065621.0131      -1632.211          50.000    18851558.236    77193978.2681      -1271.740          43.000  
G31  20825745.608   109440032.2851      -1150.267          47.000                                                                  
G19  21147289.925   111129756.4091      -1538.891          42.000                                                                  
G17  21778130.126   114444845.3471      -2903.365          42.000                                                                  
G28  22472443.501   118093490.6031      -3095.941          43.000                                                                  
G09  21605096.962   113535558.9211       2355.868          36.000                                                                  
E12  22914304.387   120415486.6421         -6.748          44.000                                                                  
E10  24147748.819   126897266.4241       1198.648          42.000                                                                  
E33  23099464.527   121388505.9101      -3011.504          46.000                                                                  
E19  22491292.915   118192532.3041        475.928          41.000                                                                  
> 2024 06 26 14 59 41.9960000  0 13                     
G06  21704225.731   114056471.184        2080.640          40.000    21704227.727    88875184.766        1621.516          38.000  
G04  19281963.964   101327403.535         556.294          45.000                                                                  
G02  21837844.577   114758642.314       -4043.566          43.000                                                                  
G03  18851871.907    99067253.784       -1632.964          50.000    18851869.017    77195250.548       -1272.180          44.000  
G31  20825964.653   109441183.461       -1151.551          47.000                                                                  
G19  21147582.811   111131295.913       -1539.709          41.000                                                                  
G17  21778682.680   114447749.251       -2904.155          43.000                                                                  
G28  22473032.703   118096587.176       -3096.769          43.000                                                                  
G09  21604648.733   113533203.267        2356.188          35.000                                                                  
E12  22914305.778   120415493.957          -7.440          44.000                                                                  
E10  24147520.656   126896068.548        1197.830          42.000                                                                  
E33  23100037.625   121391518.012       -3012.277          46.000                                                                  
E19  22491202.910   118192056.919         475.135          41.000                                                                  
> 2024 06 26 14 59 42.9960000  0 13                     
G06  21703830.119   114054391.057        2079.695          40.000    21703831.775    88873563.900        1620.704          38.000  
G04  19281858.249   101326848.079         554.894          46.000                                                                  
G02  21838614.316   114762686.608       -4044.738          44.000                                                                  
G03  18852182.844    99068887.532       -1634.308          51.000    18852179.891    77196523.615       -1273.650          44.000  
G31  20826183.950   109442335.873       -1153.013          47.000                                                                  
G19  21147876.020   111132836.651       -1541.521          41.000                                                                  
G17  21779235.423   114450654.121       -2905.204          43.000                                                                  
G28  22473622.255   118099684.834       -3098.373          43.000                                                                  
G09  21604200.622   113530848.500        2354.508          35.000                                                                  
E12  22914307.368   120415502.211          -8.821          44.000                                                                  
E10  24147292.965   126894871.472        1196.856          42.000                                                                  
E33  23100611.267   121394530.987       -3013.360          46.000                                                                  
E19  22491111.876   118191582.431         473.860          41.000                                                                  
> 2024 06 26 14 59 43.9960000  0 13                     
G06  21703434.619   114052311.656        2079.038          41.000    21703436.191    88871943.632        1619.541          38.000  
G04  19281752.682   101326293.526         553.928          45.000    19281748.579    78955536.0471        431.823          46.000  
G02  21839384.106   114766731.572       -4045.435          44.000                                                                  
G03  18852493.916    99070522.102       -1635.170          51.000    18852491.078    77197797.306       -1274.163          44.000  
G31  20826403.404   109443489.449       -1154.274          47.000    20826466.848    85280899.5611       -899.214          38.000  
G19  21148169.553   111134378.478       -1542.293          42.000                                                                  
G17  21779788.445   114453559.846       -2906.246          43.000    21779784.104    89184574.0821      -2264.617          39.000  
G28  22474211.856   118102783.416       -3099.309          43.000    22474208.075    92028124.4111      -2414.864          42.000  
G09  21603752.445   113528494.337        2354.059          35.000                                                                  
E12  22914309.046   120415511.257          -9.701          44.000                                                                  
E10  24147065.523   126893675.098        1195.805          42.000                                                                  
E33  23101184.627   121397544.713       -3014.187          46.000                                                                  
E19  22491021.820   118191108.696         473.227          41.000                                                                  
> 2024 06 26 14 59 44.9960000  0 13                     
G06  21703039.203   114050233.089        2078.372          40.000    21703040.458    88870323.952        1619.174          38.000  
G04  19281647.371   101325740.001         553.149          45.000    19281643.317    78955104.745         431.073          47.000  
G02  21840154.005   114770777.325       -4045.947          43.000                                                                  
G03  18852805.237    99072157.627       -1635.890          51.000    18852802.302    77199071.737       -1274.644          44.000  
G31  20826623.072   109444644.243       -1155.153          47.000    20826622.382    85281799.396        -899.931          40.000  
G19  21148463.223   111135921.537       -1543.626          41.000                                                                  
G17  21780341.586   114456466.534       -2907.083          43.000    21780340.161    89186839.039       -2265.534          39.000  
G28  22474801.509   118105883.027       -3099.833          42.000    22474798.652    92030539.707       -2415.626          42.000  
G09  21603304.684   113526140.924        2353.123          36.000                                                                  
E12  22914310.969   120415521.217         -10.273          44.000                                                                  
E10  24146838.007   126892479.479        1195.423          42.000                                                                  
E33  23101758.084   121400559.292       -3014.921          46.000                                                                  
E19  22490931.822   118190635.798         472.573          41.000                                                                  
> 2024 06 26 14 59 45.9960000  0 13                     
G06  21702643.912   114048155.310        2077.352          40.000    21702645.017    88868704.885        1618.673          38.000  
G04  19281542.218   101325187.471         551.907          45.000    19281538.162    78954674.206         429.984          47.000  
G02  21840924.040   114774823.779       -4046.716          43.000                                                                  
G03  18853116.681    99073794.057       -1637.071          51.000    18853113.728    77200346.868       -1275.511          44.000  
G31  20826843.102   109445800.237       -1156.583          48.000    20826838.839    85282700.198        -901.553          40.000  
G19  21148757.142   111137465.749       -1544.775          42.000                                                                  
G17  21780895.016   114459374.100       -2908.007          43.000    21780894.703    89189104.674       -2266.064          38.000  
G28  22475391.476   118108983.653       -3101.199          43.000    22475389.665    92032955.782       -2416.494          42.000  
G09  21602856.938   113523788.283        2351.774          36.000                                                                  
E12  22914313.108   120415532.033         -11.081          44.000                                                                  
E10  24146610.610   126891284.616        1194.362          43.000                                                                  
E33  23102332.070   121403574.671       -3015.687          46.000                                                                  
E19  22490842.118   118190163.690         471.771          41.000                                                                  
> 2024 06 26 14 59 46.9960000  0 13                     
G06  21702248.749   114046078.218        2076.522          40.000    21702249.664    88867086.389        1617.996          38.000  
G04  19281437.205   101324635.844         550.939          45.000    19281433.229    78954244.362         429.295          47.000  
G02  21841694.219   114778870.956       -4047.651          43.000                                                                  
G03  18853428.320    99075431.297       -1637.966          51.000    18853425.410    77201622.644       -1276.286          44.000  
G31  20827063.319   109446957.356       -1157.911          48.000    20827058.127    85283601.836        -902.066          40.000  
G19  21149051.267   111139011.086       -1546.159          42.000                                                                  
G17  21781448.540   114462282.505       -2909.025          43.000    21781446.276    89191370.971       -2266.807          38.000  
G28  22475981.754   118112085.207       -3102.396          43.000    22475981.528    92035372.559       -2417.336          43.000  
G09  21602409.404   113521436.262        2351.577          37.000                                                                  
E12  22914315.203   120415543.680         -12.310          44.000                                                                  
E10  24146383.684   126890090.429        1193.534          43.000                                                                  
E33  23102905.991   121406590.795       -3016.751          46.000                                                                  
E19  22490752.567   118189692.363         470.540          41.000                                                                  
> 2024 06 26 14 59 47.9960000  0 13                     
G06  21701853.731   114044001.856        2075.820          39.000    21701854.430    88865468.425        1617.935          38.000  
G04  19281332.468   101324085.115         550.187          45.000    19281328.389    78953815.249         428.518          47.000  
G02  21842464.547   114782918.765       -4048.129          44.000                                                                  
G03  18853739.955    99077069.365       -1638.481          51.000    18853737.144    77202899.079       -1276.909          44.000  
G31  20827283.743   109448115.596       -1158.857          47.000    20827280.641    85284504.354        -903.087          41.000  
G19  21149345.699   111140557.474       -1546.986          42.000                                                                  
G17  21782002.142   114465191.768       -2909.779          42.000    21782000.410    89193637.904       -2267.062          39.000  
G28  22476572.049   118115187.647       -3102.956          43.000    22476570.802    92037790.071       -2417.952          42.000  
G09  21601962.020   113519084.927        2350.690          35.000                                                                  
E12  22914317.423   120415556.100         -12.815          44.000                                                                  
E10  24146156.942   126888896.891        1193.145          43.000                                                                  
E33  23103480.003   121409607.638       -3017.218          46.000                                                                  
E19  22490662.883   118189221.708         470.231          41.000                                                                  
> 2024 06 26 14 59 48.9960000  0 13                     
G06  21701458.807   114041926.191        2075.125          38.000    21701459.249    88863851.007        1617.446          38.000  
G04  19281227.781   101323535.262         549.381          45.000    19281223.684    78953386.788         428.093          47.000  
G02  21843234.875   114786967.210       -4048.635          44.000                                                                  
G03  18854051.892    99078708.226       -1639.338          50.000    18854049.074    77204176.102       -1277.333          44.000  
G31  20827504.321   109449274.897       -1159.901          48.000    20827501.467    85285407.721        -903.919          41.000  
G19  21149640.250   111142104.903       -1547.729          42.000                                                                  
G17  21782555.907   114468101.804       -2910.426          43.000    21782554.299    89195905.466       -2267.921          39.000  
G28  22477162.660   118118290.979       -3103.762          44.000    22477161.251    92040208.258       -2418.735          42.000  
G09  21601514.646   113516734.121        2351.254          35.000                                                                  
E12  22914319.988   120415569.278         -13.604          44.000                                                                  
E10  24145930.346   126887703.982        1192.583          43.000                                                                  
E33  23104054.293   121412625.178       -3017.941          46.000                                                                  
E19  22490573.479   118188751.787         469.599          41.000                                                                  
> 2024 06 26 14 59 49.9960000  0 13                     
G06  21701063.966   114039851.152        2074.745          38.000    21701064.205    88862234.113        1616.599          38.000  
G04  19281123.283   101322986.277         548.773          45.000    19281119.205    78952958.997         427.644          47.000  
G02  21844005.463   114791016.257       -4049.249          44.000                                                                  
G03  18854363.788    99080347.855       -1639.931          51.000    18854361.152    77205453.740       -1277.866          44.000  
G31  20827724.986   109450435.298       -1160.930          47.000    20827721.634    85286311.911        -904.607          41.000  
G19  21149935.100   111143653.413       -1548.844          42.000                                                                  
G17  21783109.805   114471012.616       -2910.979          43.000    21783108.008    89198173.639       -2268.358          39.000  
G28  22477753.330   118121395.191       -3104.634          43.000    22477751.837    92042627.116       -2419.104          42.000  
G09  21601067.429   113514383.965        2350.210          35.000    21601073.861    88452785.7511       1832.143          34.000  
E12  22914322.436   120415583.194         -14.021          44.000                                                                  
E10  24145703.566   126886511.700        1192.245          43.000                                                                  
E33  23104629.016   121415643.409       -3018.372          46.000                                                                  
E19  22490484.192   118188282.558         468.798          41.000                                                                  
> 2024 06 26 14 59 50.9960000  0 13                     
G06  21700669.260   114037776.741        2074.218          38.000    21700669.285    88860617.676        1616.026          38.000  
G04  19281018.883   101322438.115         547.672          45.000    19281014.896    78952531.875         426.688          47.000  
G02  21844776.148   114795065.900       -4050.147          44.000                                                                  
G03  18854675.795    99081988.241       -1640.928          51.000    18854673.290    77206731.969       -1278.739          44.000  
G31  20827946.045   109451596.733       -1162.137          48.000    20827942.658    85287216.937        -905.704          41.000  
G19  21150230.083   111145202.929       -1550.098          42.000                                                                  
G17  21783663.824   114473924.206       -2912.169          43.000    21783661.876    89200442.404       -2268.994          39.000  
G28  22478344.199   118124500.237       -3105.723          43.000    22478342.703    92045046.634       -2420.035          42.000  
G09  21600620.352   113512034.357        2349.016          35.000    21600620.092    88450954.924        1831.195          35.000  
E12  22914325.182   120415597.830         -15.109          44.000                                                                  
E10  24145476.521   126885320.009        1191.424          43.000                                                                  
E33  23105203.449   121418662.294       -3019.309          46.000                                                                  
E19  22490395.176   118187813.970         468.026          41.000                                                                  
> 2024 06 26 14 59 51.9960000  0 13                     
G06  21700274.733   114035703.090        2073.119          38.000    21700274.477    88859001.879        1615.640          37.000  
G04  19280914.728   101321890.903         546.850          45.000    19280910.731    78952105.471         426.116          47.000  
G02  21845546.964   114799116.275       -4050.851          44.000                                                                  
G03  18854988.091    99083629.485       -1641.710          51.000    18854985.764    77208010.858       -1279.296          44.000  
G31  20828167.419   109452759.326       -1163.236          48.000    20828163.896    85288122.854        -906.572          41.000  
G19  21150525.204   111146753.584       -1551.185          42.000                                                                  
G17  21784217.925   114476836.657       -2912.860          43.000    21784215.998    89202711.850       -2269.781          39.000  
G28  22478935.155   118127606.247       -3106.613          43.000    22478933.696    92047466.893       -2420.539          42.000  
G09  21600173.510   113509685.465        2348.413          35.000    21600175.147    88449124.666        1829.684          34.000  
E12  22914328.056   120415613.288         -15.672          44.000                                                                  
E10  24145249.858   126884129.027        1190.596          43.000                                                                  
E33  23105778.126   121421681.940       -3019.950          46.000                                                                  
E19  22490306.248   118187346.154         467.279          41.000                                                                  
> 2024 06 26 14 59 52.9960000  0 13                     
G06  21699880.239   114033630.047        2072.639          38.000    21699879.930    88857386.486        1615.138          36.000  
G04  19280810.833   101321344.473         546.166          45.000    19280806.811    78951679.697         425.395          46.000  
G02  21846317.736   114803167.144       -4051.018          43.000                                                                  
G03  18855300.504    99085271.426       -1642.068          50.000    18855298.386    77209290.294       -1279.702          44.000  
G31  20828388.959   109453922.918       -1164.106          48.000    20828385.253    85289029.530        -906.676          41.000  
G19  21150820.499   111148305.236       -1552.383          42.000                                                                  
G17  21784772.275   114479749.833       -2913.479          43.000    21784770.401    89204981.858       -2270.255          39.000  
G28  22479526.498   118130713.064       -3107.166          44.000    22479524.708    92049887.779       -2421.261          42.000  
G09  21599726.662   113507337.148        2347.447          35.000    21599728.258    88447294.747        1829.605          34.000  
E12  22914331.180   120415629.432         -16.249          44.000                                                                  
E10  24145023.258   126882938.590        1190.288          43.000                                                                  
E33  23106352.690   121424702.218       -3020.536          46.000                                                                  
E19  22490216.987   118186878.928         466.977          41.000                                                                  
> 2024 06 26 14 59 53.9960000  0 13                     
G06  21699486.021   114031557.542        2071.849          39.000    21699485.505    88855771.529        1614.610          34.000  
G04  19280706.961   101320798.830         544.781          45.000    19280703.070    78951254.510         424.439          43.000  
G02  21847088.653   114807218.547       -4052.033          43.000                                                                  
G03  18855613.007    99086914.059       -1643.328          50.000    18855610.994    77210570.262       -1280.576          40.000  
G31  20828610.554   109455087.494       -1165.484          48.000    20828606.928    85289936.995        -907.872          37.000  
G19  21151116.050   111149857.802       -1553.410          42.000                                                                  
G17  21785326.766   114482663.701       -2914.710          43.000    21785324.748    89207252.410       -2271.107          36.000  
G28  22480117.876   118133820.659       -3108.521          44.000    22480116.088    92052309.278       -2422.457          38.000  
G09  21599279.820   113504989.233        2347.142          36.000    21599280.284    88445465.254        1828.161          27.000  
E12  22914334.220   120415646.213         -17.534          43.000                                                                  
E10  24144796.965   126881748.679        1189.402          43.000                                                                  
E33  23106927.272   121427723.064       -3021.506          45.000                                                                  
E19  22490128.297   118186412.338         466.063          41.000                                                                  
> 2024 06 26 14 59 54.9960000  0 13                     
G06  21699091.757   114029485.716        2071.643          40.000    21699091.151    88854157.149        1614.360          34.000  
G04  19280603.281   101320254.054         544.426          45.000    19280599.506    78950830.006         424.236          44.000  
G02  21847859.755   114811270.608       -4052.240          43.000                                                                  
G03  18855925.784    99088557.488       -1643.848          50.000    18855923.697    77211850.853       -1280.982          41.000  
G31  20828832.457   109456253.149       -1166.163          48.000    20828828.708    85290845.321        -908.801          38.000  
G19  21151411.755   111151411.433       -1554.067          42.000                                                                  
G17  21785881.399   114485578.369       -2915.094          43.000    21785879.387    89209523.581       -2271.468          36.000  
G28  22480709.401   118136929.133       -3109.018          43.000    22480707.517    92054731.467       -2422.857          39.000  
G09  21598833.210   113502641.961        2346.958          36.000    21598833.774    88443636.172        1828.949          30.000  
E12  22914337.567   120415663.762         -17.974          43.000                                                                  
E10  24144570.818   126880559.408        1188.907          43.000                                                                  
E33  23107502.174   121430744.632       -3021.890          45.000                                                                  
E19  22490039.862   118185946.459         465.284          41.000                                                                  
> 2024 06 26 14 59 55.9960000  0 13                     
G06  21698697.716   114027414.475        2070.941          40.000    21698696.972    88852543.243        1613.542          34.000  
G04  19280499.665   101319710.055         543.595          45.000    19280496.113    78950406.118         423.594          44.000  
G02  21848631.027   114815323.196       -4052.930          43.000                                                                  
G03  18856238.621    99090201.612       -1644.533          50.000    18856236.568    77213131.987       -1281.336          41.000  
G31  20829054.482   109457419.811       -1167.277          48.000    20829050.760    85291754.418        -909.979          38.000  
G19  21151707.687   111152966.030       -1555.040          42.000                                                                  
G17  21786436.198   114488493.725       -2915.642          43.000    21786434.159    89211795.257       -2271.763          36.000  
G28  22481301.129   118140038.398       -3109.972          43.000    22481299.208    92057154.269       -2423.012          39.000  
G09  21598386.554   113500295.235        2346.294          35.000    21598387.136    88441807.431        1829.523          30.000  
E12  22914341.070   120415681.991         -18.534          43.000                                                                  
E10  24144344.819   126879370.663        1188.573          43.000                                                                  
E33  23108077.210   121433766.808       -3022.381          45.000                                                                  
E19  22489951.669   118185481.151         464.956          41.000                                                                  
> 2024 06 26 14 59 56.9960000  0 13                     
G06  21698303.797   114025343.838        2070.126          41.000    21698303.012    88850929.770        1613.000          33.000  
G04  19280396.322   101319166.849         542.841          45.000    19280392.802    78949982.843         422.974          43.000  
G02  21849402.297   114819376.293       -4053.430          43.000                                                                  
G03  18856551.513    99091846.442       -1645.196          50.000    18856549.611    77214413.657       -1281.867          41.000  
G31  20829276.764   109458587.465       -1168.247          48.000    20829272.914    85292664.254        -910.205          38.000  
G19  21152003.807   111154521.606       -1556.129          41.000                                                                  
G17  21786991.092   114491409.773       -2916.327          43.000    21786989.046    89214067.560       -2273.233          35.000  
G28  22481892.862   118143148.436       -3110.599          43.000    22481891.034    92059577.711       -2424.292          38.000  
G09  21597940.000   113497948.979        2345.961          34.000    21597940.523    88439979.288        1828.265          29.000  
E12  22914344.473   120415700.886         -19.255          43.000                                                                  
E10  24144118.727   126878182.480        1187.855          43.000                                                                  
E33  23108652.410   121436789.580       -3023.237          46.000                                                                  
E19  22489863.265   118185016.450         464.447          41.000                                                                  
> 2024 06 26 14 59 57.9960000  0 13                     
G06  21697909.986   114023273.657        2069.873          41.000    21697909.071    88849316.607        1613.196          32.000  
G04  19280293.120   101318624.333         542.186          45.000    19280289.673    78949560.090         422.477          43.000  
G02  21850173.668   114823429.853       -4053.714          43.000                                                                  
G03  18856864.663    99093491.869       -1645.741          50.000    18856862.781    77215695.818       -1282.365          41.000  
G31  20829499.258   109459756.030       -1169.006          48.000    20829495.204    85293574.793        -910.608          38.000  
G19  21152299.987   111156078.050       -1556.709          42.000                                                                  
G17  21787546.143   114494326.467       -2916.969          42.000    21787544.014    89216340.265       -2272.739          34.000  
G28  22482484.695   118146259.195       -3110.980          43.000    22482482.971    92062001.660       -2424.336          38.000  
G09  21597493.432   113495603.148        2346.197          34.000    21597494.326    88438151.414        1827.828          29.000  
E12  22914347.982   120415720.354         -19.548          43.000                                                                  
E10  24143892.460   126876994.740        1187.615          43.000                                                                  
E33  23109227.687   121439812.849       -3023.326          46.000                                                                  
E19  22489775.163   118184552.250         464.179          42.000                                                                  
> 2024 06 26 14 59 58.9960000  0 13                     
G06  21697516.156   114021204.023        2069.417          41.000    21697515.066    88847703.885        1613.357          32.000  
G04  19280190.092   101318082.543         541.504          45.000    19280186.641    78949137.923         421.899          43.000  
G02  21850945.094   114827483.909       -4054.481          43.000                                                                  
G03  18857177.792    99095137.951       -1646.494          50.000    18857176.065    77216978.487       -1283.091          41.000  
G31  20829721.912   109460925.519       -1170.041          48.000    20829717.785    85294486.100        -911.756          38.000  
G19  21152596.265   111157635.417       -1557.712          42.000                                                                  
G17  21788101.360   114497243.828       -2917.792          42.000    21788099.072    89218613.502       -2273.283          35.000  
G28  22483076.893   118149370.714       -3112.131          43.000    22483075.017    92064426.197       -2424.632          38.000  
G09  21597046.932   113493257.845        2345.595          35.000    21597048.175    88436323.879        1827.100          29.000  
E12  22914351.727   120415740.430         -20.469          43.000    22914349.577    92266590.0871        -15.743          46.000  
E10  24143666.479   126875807.468        1187.145          43.000    24143666.247    97216538.9861        909.581          45.000  
E33  23109802.907   121442836.718       -3024.320          46.000                                                                  
E19  22489686.883   118184088.648         463.212          41.000                                                                  
> 2024 06 26 14 59 59.9960000  0 13                     
G06  21697122.562   114019135.006        2068.927          41.000    21697121.287    88846091.696        1611.561          32.000  
G04  19280087.142   101317541.565         540.483          45.000    19280083.718    78948716.366         421.461          43.000  
G02  21851716.732   114831538.500       -4054.860          43.000                                                                  
G03  18857491.174    99096784.752       -1647.258          50.000    18857489.588    77218261.699       -1283.508          41.000  
G31  20829944.668   109462096.025       -1171.018          48.000    20829940.518    85295398.189        -912.478          38.000  
G19  21152892.711   111159193.765       -1558.839          42.000                                                                  
G17  21788656.655   114500161.919       -2918.627          43.000    21788654.299    89220887.363       -2274.278          35.000  
G28  22483669.170   118152483.015       -3112.844          43.000    22483667.231    92066851.383       -2425.643          38.000  
G09  21596600.539   113490913.037        2344.993          33.000    21596602.073    88434496.771        1826.722          29.000  
E12  22914355.438   120415761.188         -21.189          43.000    22914353.167    92266605.982         -16.138          46.000  
E10  24143440.771   126874620.796        1186.289          43.000    24143440.411    97215629.713         909.016          45.000  
E33  23110378.488   121445861.180       -3024.802          46.000                                                                  
E19  22489598.906   118183625.622         462.634          41.000                                                                  
> 2024 06 26 15 00 00.9960000  0 13                     
G06  21696728.972   114017066.489        2068.116          40.000    21696727.607    88844479.864        1611.000          32.000  
G04  19279984.302   101317001.274         539.909          45.000    19279980.874    78948295.375         420.541          43.000  
G02  21852488.376   114835593.556       -4055.200          44.000                                                                  
G03  18857804.712    99098432.151       -1647.591          50.000    18857803.061    77219545.389       -1283.846          41.000  
G31  20830167.815   109463267.450       -1171.850          48.000    20830163.470    85296310.980        -913.159          38.000  
G19  21153189.428   111160752.967       -1559.470          42.000                                                                  
G17  21789211.961   114503080.584       -2918.891          43.000    21789209.623    89223161.683       -2274.830          34.000  
G28  22484261.578   118155596.038       -3113.177          43.000    22484259.699    92069277.119       -2426.115          38.000  
G09  21596154.078   113488568.715        2344.615          32.000    21596156.069    88432670.076        1825.959          29.000  
E12  22914359.540   120415782.536         -21.557          43.000    22914357.338    92266622.336         -16.427          46.000  
E10  24143214.893   126873434.555        1186.040          43.000    24143215.022    97214720.769         908.951          45.000  
E33  23110953.924   121448886.160       -3025.168          46.000                                                                  
E19  22489511.044   118183163.151         462.200          41.000                                                                  
> 2024 06 26 15 00 01.9960000  0 13                     
G06  21696335.346   114014998.482        2067.413          40.000    21696334.050    88842868.401        1611.405          32.000  
G04  19279881.623   101316461.685         539.184          45.000    19279878.315    78947874.916         420.104          44.000  
G02  21853260.186   114839649.066       -4055.733          44.000                                                                  
G03  18858118.258    99100080.184       -1648.450          50.000    18858116.658    77220829.582       -1284.587          41.000  
G31  20830390.963   109464439.783       -1172.857          48.000    20830386.650    85297224.468        -913.520          38.000  
G19  21153486.352   111162313.091       -1560.832          42.000                                                                  
G17  21789767.509   114505999.913       -2919.751          43.000    21789765.052    89225436.427       -2274.737          34.000  
G28  22484854.091   118158709.782       -3114.337          42.000    22484852.270    92071703.402       -2426.740          38.000  
E12  22914363.864   120415804.461         -22.228          43.000    22914361.530    92266639.149         -17.009          46.000  
E10  24142989.236   126872248.790        1185.427          43.000    24142989.141    97213812.203         908.337          45.000  
E33  23111529.748   121451911.684       -3025.931          46.000                                                                  
E19  22489422.979   118182701.184         461.729          42.000                                                                  
G09                                                                  21595710.312    88430843.597        1826.127          29.000  
> 2024 06 26 15 00 02.9960000  0 13                     
G06  21695941.864   114012930.915        2067.375          41.000    21695940.593    88841257.335        1611.357          32.000  
G04  19279779.262   101315922.773         538.517          45.000    19279775.835    78947454.986         419.572          44.000  
G02  21854031.958   114843704.988       -4055.997          44.000                                                                  
G03  18858431.913    99101728.799       -1648.879          50.000    18858430.378    77222114.216       -1284.822          41.000  
G31  20830614.265   109465613.006       -1173.691          48.000    20830609.934    85298138.680        -914.562          38.000  
G19  21153783.365   111163874.069       -1561.373          41.000                                                                  
G17  21790323.082   114508919.852       -2920.389          43.000    21790320.678    89227711.727       -2275.718          34.000  
G28  22485446.769   118161824.208       -3114.905          43.000    22485444.919    92074130.229       -2427.057          38.000  
E12  22914368.103   120415826.972         -22.802          43.000    22914365.663    92266656.394         -17.491          46.000  
E10  24142763.733   126871063.459        1185.040          43.000    24142763.360    97212903.964         908.114          45.000  
E33  23112105.734   121454937.691       -3026.333          46.000                                                                  
E19  22489335.056   118182239.741         461.288          42.000                                                                  
G09                                                                  21595264.575    88429017.500        1825.821          29.000  
> 2024 06 26 15 00 03.9960000  0 13                     
G06  21695548.575   114010863.703        2067.001          41.000    21695547.306    88839646.523        1611.072          33.000  
G04  19279676.875   101315384.384         538.054          46.000    19279673.421    78947035.462         419.311          44.000  
G02  21854803.748   114847761.225       -4056.428          42.000                                                                  
G03  18858745.669    99103377.857       -1649.275          50.000    18858744.225    77223399.187       -1284.980          41.000  
G31  20830837.741   109466786.948       -1174.378          48.000    20830833.436    85299053.464        -915.241          38.000  
G19  21154080.528   111165435.748       -1562.136          41.000                                                                  
G17  21790878.811   114511840.222       -2920.704          44.000    21790876.390    89229987.319       -2275.437          34.000  
G28  22486039.575   118164939.137       -3115.240          43.000    22486037.643    92076557.457       -2427.521          39.000  
G09  21594815.478   113481520.0671       2343.450          34.000    21594818.789    88427191.592        1825.853          30.000  
E12  22914372.474   120415849.868         -23.063          43.000    22914370.232    92266673.953         -17.737          46.000  
E10  24142538.727   126869878.394        1184.823          43.000    24142538.032    97211995.939         907.821          45.000  
E33  23112681.671   121457964.047       -3026.543          46.000                                                                  
E19  22489247.444   118181778.633         460.982          42.000                                                                  
> 2024 06 26 15 00 04.9960000  0 13                     
G06  21695155.352   114008796.956        2066.376          41.000    21695153.974    88838036.071        1610.665          34.000  
G04  19279574.597   101314846.660         537.400          46.000    19279571.013    78946616.460         418.699          44.000  
G02  21855575.853   114851817.838       -4056.660          42.000                                                                  
G03  18859059.630    99105027.492       -1649.918          50.000    18859058.126    77224684.612       -1285.511          41.000  
G31  20831061.354   109467961.775       -1175.163          48.000    20831056.995    85299968.900        -915.795          38.000  
G19  21154377.862   111166998.293       -1563.156          41.000                                                                  
G17  21791434.701   114514761.187       -2921.245          43.000    21791432.262    89232263.410       -2276.518          34.000  
G28  22486632.489   118168054.765       -3115.826          43.000    22486630.473    92078985.201       -2427.997          38.000  
G09  21594369.270   113479177.220        2342.824          34.000    21594373.085    88425365.969        1825.259          30.000  
E12  22914376.957   120415873.310         -23.548          43.000    22914374.544    92266691.908         -18.116          46.000  
E10  24142313.388   126868693.762        1184.434          43.000    24142312.598    97211088.232         907.658          45.000  
E33  23113257.964   121460990.888       -3027.023          47.000                                                                  
E19  22489159.895   118181318.025         460.339          42.000                                                                  
> 2024 06 26 15 00 05.9960000  0 13                     
G06  21694762.128   114006730.677        2066.023          41.000    21694760.835    88836426.076        1609.500          33.000  
G04  19279472.447   101314309.650         536.748          45.000    19279468.867    78946198.003         418.175          44.000  
G02  21856347.814   114855874.940       -4057.345          42.000                                                                  
G03  18859373.639    99106677.742       -1650.422          50.000    18859372.220    77225970.528       -1286.041          41.000  
G31  20831285.240   109469137.520       -1176.203          48.000    20831280.763    85300885.077        -916.443          38.000  
G19  21154675.329   111168561.698       -1563.721          41.000                                                                  
G17  21791990.639   114517682.777       -2921.957          43.000    21791988.190    89234539.955       -2276.513          34.000  
G28  22487225.556   118171171.082       -3116.650          43.000    22487223.502    92081413.531       -2428.601          38.000  
G09  21593923.430   113476834.842        2342.223          33.000    21593927.532    88423540.789        1824.643          29.000  
E12  22914381.539   120415897.354         -24.143          43.000    22914379.037    92266710.330         -18.667          46.000  
E10  24142087.991   126867509.603        1183.984          43.000    24142087.342    97210180.886         907.207          45.000  
E33  23113833.980   121464018.266       -3027.570          47.000                                                                  
E19  22489072.202   118180857.923         460.024          42.000                                                                  
> 2024 06 26 15 00 06.9960000  0 13                     
G06  21694368.988   114004664.809        2065.493          41.000    21694367.675    88834816.249        1609.433          33.000  
G04  19279370.335   101313773.214         536.018          45.000    19279366.774    78945779.997         417.619          44.000  
G02  21857119.831   114859932.394       -4057.726          41.000                                                                  
G03  18859687.689    99108328.500       -1651.117          50.000    18859686.417    77227256.831       -1286.198          41.000  
G31  20831509.216   109470314.073       -1177.240          48.000    20831504.609    85301801.860        -917.252          38.000  
G19  21154972.889   111170125.876       -1564.778          39.000                                                                  
G17  21792546.674   114520604.873       -2922.512          43.000    21792544.248    89236816.911       -2277.254          35.000  
G28  22487818.795   118174288.028       -3117.468          43.000    22487816.656    92083842.320       -2429.169          38.000  
G09  21593477.667   113474492.796        2340.929          32.000    21593481.908    88421715.795        1824.883          29.000  
E12  22914386.214   120415921.868         -25.140          43.000    22914383.702    92266729.109         -19.213          46.000  
E10  24141862.763   126866325.786        1183.336          43.000    24141862.049    97209273.811         906.812          45.000  
E33  23114410.048   121467046.057       -3028.282          47.000    23114409.437    93072147.7371      -2320.093          46.000  
E19  22488984.890   118180398.240         459.266          42.000    22488981.757    90553809.7581        352.189          41.000  
> 2024 06 26 15 00 07.9960000  0 13                     
G06  21693975.948   114002599.424        2065.384          41.000    21693974.689    88833206.871        1608.877          33.000  
G04  19279268.413   101313237.433         535.725          45.000    19279264.850    78945362.509         417.364          43.000  
G02  21857892.053   114863990.227       -4057.701          42.000                                                                  
G03  18860002.027    99109979.838       -1651.432          50.000    18860000.678    77228543.587       -1286.838          41.000  
G31  20831733.288   109471491.475       -1177.676          48.000    20831728.712    85302719.313        -917.639          38.000  
G19  21155270.585   111171690.884       -1565.501          39.000                                                                  
G17  21793102.789   114523527.534       -2922.655          43.000    21793100.447    89239094.330       -2277.791          35.000  
G28  22488411.995   118177405.605       -3117.847          43.000    22488409.903    92086271.594       -2429.395          38.000  
G09  21593032.009   113472151.122        2341.364          32.000    21593035.868    88419891.103        1824.986          28.000  
E12  22914391.269   120415946.910         -25.268          43.000    22914388.576    92266748.298         -19.095          46.000  
E10  24141637.411   126865142.378        1183.452          43.000    24141636.817    97208367.050         906.671          45.000  
E33  23114986.462   121470074.328       -3028.395          47.000    23114985.377    93074468.100       -2320.324          46.000  
E19  22488897.411   118179939.024         459.320          42.000    22488894.785    90553457.906         351.837          41.000  
> 2024 06 26 15 00 08.9960000  0 13                     
G06  21693583.034   114000534.380        2064.572          42.000    21693581.697    88831597.733        1608.751          33.000  
G04  19279166.682   101312702.218         534.679          45.000    19279162.993    78944945.454         416.736          43.000  
G02  21858664.263   114868048.377       -4058.494          41.000                                                                  
G03  18860316.405    99111631.630       -1652.142          50.000    18860314.875    77229830.706       -1287.619          41.000  
G31  20831957.535   109472669.642       -1178.773          48.000    20831952.998    85303637.365        -918.456          38.000  
G19  21155568.455   111173256.643       -1566.389          39.000                                                                  
G17  21793658.903   114526450.697       -2923.445          43.000    21793656.717    89241372.098       -2278.008          35.000  
G28  22489005.360   118180523.772       -3118.524          43.000    22489003.172    92088701.332       -2430.011          38.000  
G09  21592586.510   113469809.690        2341.912          33.000    21592590.231    88418066.733        1823.677          28.000  
E12  22914395.909   120415972.389         -25.856          43.000    22914393.325    92266767.829         -19.820          46.000  
E10  24141412.113   126863959.288        1182.707          43.000    24141411.816    97207460.533         906.175          45.000  
E33  23115562.882   121473102.964       -3029.016          47.000    23115562.234    93076788.748       -2320.911          46.000  
E19  22488809.733   118179480.202         458.457          42.000    22488807.117    90553106.359         351.058          42.000  
> 2024 06 26 15 00 09.9960000  0 13                     
G06  21693190.169   113998469.781        2064.131          42.000    21693188.881    88829988.969        1607.971          33.000  
G04  19279065.072   101312167.635         534.258          46.000    19279061.233    78944528.906         416.216          44.000  
G02  21859436.624   114872106.939       -4058.875          41.000                                                                  
G03  18860630.886    99113284.003       -1652.671          50.000    18860629.312    77231118.260       -1287.847          41.000  
G31  20832181.828   109473848.670       -1179.602          48.000    20832177.404    85304556.091        -918.935          38.000  
G19  21155866.481   111174823.225       -1567.084          39.000                                                                  
G17  21794215.246   114529374.428       -2923.888          44.000    21794213.104    89243650.345       -2278.627          35.000  
G28  22489598.788   118183642.588       -3119.104          43.000    22489596.641    92091131.597       -2431.036          38.000  
G09  21592140.912   113467468.741        2340.723          33.000    21592144.637    88416242.535        1823.679          27.000  
E12  22914400.784   120415998.431         -26.564          43.000    22914398.290    92266787.777         -20.278          46.000  
E10  24141186.541   126862776.608        1182.588          42.000    24141186.750    97206554.327         905.964          45.000  
E33  23116139.328   121476132.077       -3029.323          47.000    23116138.922    93079109.751       -2321.206          46.000  
E19  22488722.531   118179021.883         458.051          42.000    22488720.144    90552755.162         350.991          42.000  
> 2024 06 26 15 00 10.9960000  0 13                     
G06  21692797.377   113996405.731        2063.692          42.000    21692796.075    88828380.605        1607.645          33.000  
G04  19278963.631   101311633.804         533.285          46.000    19278959.597    78944112.929         415.531          44.000  
G02  21860209.100   114876165.971       -4059.339          41.000                                                                  
G03  18860945.356    99114937.024       -1653.268          50.000    18860943.980    77232406.332       -1288.524          41.000  
G31  20832406.478   109475028.643       -1180.431          48.000    20832401.928    85305475.573        -920.043          38.000  
G19  21156164.793   111176390.728       -1567.998          39.000                                                                  
G17  21794771.813   114532298.818       -2924.812          44.000    21794769.517    89245929.047       -2278.601          34.000  
G28  22490192.340   118186762.151       -3120.123          43.000    22490190.331    92093562.420       -2431.726          38.000  
G09  21591695.487   113465128.233        2340.665          33.000    21591699.212    88414418.740        1823.664          27.000  
E12  22914405.766   120416025.066         -26.956          43.000    22914403.366    92266808.191         -20.676          46.000  
E10  24140961.676   126861594.429        1181.954          43.000    24140961.817    97205648.503         905.647          45.000  
E33  23116715.921   121479161.751       -3030.049          47.000    23116715.489    93081431.190       -2321.761          46.000  
E19  22488635.585   118178564.101         457.554          42.000    22488632.795    90552404.397         350.662          41.000  
> 2024 06 26 15 00 11.9960000  0 13                     
G06  21692404.651   113994342.095        2063.652          42.000    21692403.375    88826772.546        1608.780          32.000  
G04  19278862.182   101311100.583         533.135          46.000    19278858.201    78943697.424         415.620          44.000  
G02  21860981.525   114880225.382       -4059.510          41.000                                                                  
G03  18861260.020    99116590.590       -1653.612          50.000    18861258.457    77233694.822       -1288.605          41.000  
G31  20832631.153   109476209.466       -1180.994          48.000    20832626.729    85306395.672        -920.234          38.000  
G19  21156463.231   111177959.015       -1568.273          39.000                                                                  
G17  21795328.466   114535223.752       -2925.127          44.000    21795326.122    89248208.237       -2278.770          35.000  
G28  22490786.003   118189882.332       -3120.233          43.000    22490784.125    92095993.750       -2431.604          38.000  
G09  21591250.241   113462788.102        2338.916          32.000    21591253.818    88412595.247        1823.703          28.000  
E12  22914410.855   120416052.235         -27.107          42.000    22914408.651    92266829.008         -20.880          46.000  
E10  24140736.978   126860412.627        1181.932          43.000    24140736.891    97204742.975         905.483          45.000  
E33  23117292.599   121482191.867       -3030.153          47.000    23117292.043    93083752.961       -2321.653          46.000  
E19  22488548.319   118178106.756         457.416          42.000    22488546.072    90552053.971         350.466          41.000  
> 2024 06 26 15 00 12.9960000  0 13                     
G06  21692012.039   113992278.686        2063.427          42.000    21692010.729    88825164.732        1607.896          33.000  
G04  19278760.707   101310567.809         532.543          45.000    19278756.760    78943282.279         414.965          44.000  
G02  21861754.127   114884284.987       -4059.875          41.000                                                                  
G03  18861574.693    99118244.501       -1654.143          50.000    18861573.226    77234983.575       -1289.005          41.000  
G31  20832855.992   109477390.930       -1181.743          48.000    20832851.582    85307316.308        -920.820          38.000  
G19  21156761.732   111179527.968       -1569.441          40.000                                                                  
G17  21795885.126   114538149.054       -2925.492          44.000    21795882.872    89250487.716       -2279.847          34.000  
G28  22491379.701   118193002.990       -3121.045          42.000    22491378.024    92098425.399       -2431.854          38.000  
